index,X,Y,FID,STTNKEY,STTNID,NHS,LOCATION,CONFIDENCE,COMMENT,LONGITUDE,LATITUDE,STPOSTAL,AADT,YEAR_GEO,FCLASS,STFIPS,CTFIPS,VERSION
0,-147.7996717942476,64.837219210039,6001,02000530,000530,3,IRPORT WAY BETWEEN MARKET STREET AND UNIVERSITY A,3, ,-147.799672,64.837219,AK,15330,2001,14,2,90,1
1,-147.56570479402967,64.81803121002127,6002,02000531,000531,0,EST END BADGER LOOP ROAD (NB),2,Poor Location Description,-147.565704,64.818031,AK,10620,2001,17,2,90,1
2,-147.80303679425057,64.84928221005032,6003,02000532,000532,7,OHANSEN EXPRESSWAY EAST OF UNIVERSITY AVENUE (EB),2, ,-147.803037,64.849282,AK,20866,2001,14,2,90,1
3,-131.64000477919762,55.34476120119854,6004,02000800,000800,0,AWDEN PTR BTW DOCK & PARK   KETCHIKAN,2,Not on NHPN,-131.640004,55.344761,AK,0,2001, ,2,0,1
4,-131.71156277926434,55.377654201229056,6005,02000801,000801,0,"TONGASS BTW S & N JCTS W/SHORELINE DR, KETCHIKAN",3, ,-131.711563,55.377654,AK,0,2001, ,2,130,1
5,-133.0880777805462,55.550582201390114,6006,02000802,000802,0,RAIG/KLAWOCK/HOLLIS HWY BTW KLAWOCK R. BR. & BAYV,3,Not on NHPN,-133.088078,55.550582,AK,2028,2001,7,2,0,1
6,-132.36461977987256,56.46718520224396,6007,02000803,000803,0,RANGELL PTR: ZIMOVIA HWY BTW BENNET & CASE   WRAN,3, ,-132.36462,56.467186,AK,2113,2001,7,2,280,1
7,-132.95190178041935,56.776219202531536,6008,02000804,000804,0,"ITKOF HWY PTR, S JCT SCOW BAY LOOP - USFS WAREHOU",3, ,-132.951902,56.776219,AK,1081,2001,7,2,280,1
8,-134.7333777820786,58.38314720402816,6009,02000805,000805,0,LACIER HWY BTW N LENA & AUKE BAY FERRY TERMINAL,3, ,-134.733378,58.383147,AK,2019,2001,16,2,110,1
9,-135.33126978263545,57.0529082027893,6010,02000808,000808,8,"ALIBUT PT RD BTW KATLIAN & MARINE STS, SITKA",3, ,-135.33127,57.052908,AK,10370,2001,16,2,220,1
10,-135.474787782769,59.24547220483134,6011,02000809,000809,7,AINES HWY BTW SAWMILL & AIRPORT RDS 1200 FT N OF,3, ,-135.474788,59.245472,AK,955,2001,2,2,100,1
11,-149.3730437957128,60.48521620598586,6012,02MOOSEP,MOOSEP,3,MOOSE PASS MAINTENANCE STATION-ON SEWARD HWY (PERM,2,Poor Location Description,-149.373044,60.485216,AK,0,1999, ,2,112,1
12,-149.75486879606837,62.900676208235375,6013,02000101,000101,1,HULITNA - NB,1,Poor Location Description,-149.754869,62.900676,AK,1193,2001,1,2,170,1
13,-149.7947477961056,61.05891820651999,6014,02000104,000104,0,OTTER II - NB,3,Not on NHPN,-149.794748,61.058918,AK,9333,2001,11,2,0,1
14,-151.83143779800227,59.78589720533456,6015,02000105,000105,7,NCHOR POINT - NB,2,Poor Location Description,-151.831438,59.785897,AK,2581,2001,2,2,112,1
15,-149.21003279556115,61.59981320702412,6016,02000106,000106,0,"PALMER/WASILLA PTR, 1 MILE EAST OF TRUNK RD - EB",3, ,-149.210033,61.599813,AK,14414,1999,6,2,170,1
16,-150.8970937971321,60.514458206013146,6017,02000107,000107,1,TERLING HWY--6 MI E. OF SOLDOTNA-EB,3, ,-150.897094,60.514458,AK,8305,2001,1,2,112,1
17,-149.78512879609656,61.181426206634335,6018,02000109,000109,7,UDOR ROAD-.3 MILES WEST OF BONIFACE ROAD-EB,3, ,-149.785128,61.181426,AK,40432,2001,14,2,20,1
18,-150.04593979633955,61.73994120715462,6019,02000110,000110,1,ILLOW II - NB,3, ,-150.04594,61.739941,AK,3003,2001,1,2,170,1
19,-151.49599979769,59.63707520519597,6020,02000111,000111,0,TERLING HWY--S. OF HOMER AIRPORT-NB,2,Sterling Hwy does not extend south of Homer Airport,-151.496,59.637075,AK,4145,2001,2,2,112,1
20,-149.83177979614015,61.15386220660877,6021,02000112,000112,0,"AKE OTIS PKWY, S OF 74TH AVE - NB",3,Not on NHPN,-149.83178,61.153862,AK,24573,2001,16,2,0,1
21,-151.5078507977009,59.65296920521093,6022,02000113,000113,0,"OMER II, EAST END RD - EB",2,Poor Location Description,-151.507851,59.652969,AK,0,2001, ,2,112,1
22,-152.4493777985778,57.78228520346863,6023,02000114,000114,8,"EZANOF DRIVE, KODIAK - W OF GIBSON COVE RD (FIXED",3, ,-152.449378,57.782285,AK,5219,2001,16,2,150,1
23,-148.9236717952942,60.805506206284285,6024,02000115,000115,8,ORTAGE GLACIER RD (2 MI E OF SEWARD HWY - EB,3, ,-148.923672,60.805506,AK,0,2001, ,2,20,1
24,-149.85774079616428,61.124124206580966,6025,02000116,000116,7,'MALLEY RD-.15 EAST OF NEW SEWARD HWY-EB,3, ,-149.857741,61.124124,AK,15881,2001,16,2,20,1
25,-149.88030779618524,61.20427320665543,6026,02000117,000117,0,ST- AT CHESTER CRK-NB,2,Not on NHPN,-149.880308,61.204273,AK,34773,2001,16,2,0,1
26,-149.8811427961859,61.17389120662728,6027,02000118,000118,0,NT'L AIRPORT RD-0.1 MI EAST OF C ST.-EB,3,Not on NHPN,-149.881143,61.173891,AK,16944,2001,16,2,0,1
27,-149.41678879575346,61.42808920686388,6028,02000120,000120,1,"LENN HWY, AT MIRROR LAKE - NB",3, ,-149.416789,61.428089,AK,0,2001, ,2,20,1
28,-149.89638279620016,61.14330120659877,6029,02000121,000121,0,IMOND BLVD-WEST OF ARCTIC-EB,3,Not on NHPN,-149.896383,61.143301,AK,35012,2001,16,2,0,1
29,-149.86401079617005,61.20236320665373,6030,02000122,000122,0,NGRA @ CHESTER CREEK - NB,2,Not on NHPN,-149.864011,61.202363,AK,54218,2001,11,2,0,1
30,-148.8437277952198,61.71437520713062,6031,02000123,000123,1,"LENN HWY, AT MP53 (N OF PALMER) - NB",2, ,-148.843728,61.714375,AK,2723,2001,1,2,170,1
31,-149.80326679611352,61.21860320666888,6032,02000125,000125,0,"AST 5TH AVE, E OF AIRPORT HTS - EB",1,Not on NHPN,-149.803266,61.218603,AK,0,2001, ,2,0,1
32,-149.91020279621307,61.20484820665615,6033,02000126,000126,7,MINNESOTA DR @ CHESTER CREEK (EXCLUDING SPENARD ON,3, ,-149.910202,61.204848,AK,0,1999, ,2,20,1
33,-151.10452279732544,60.55331120604945,6034,02000127,000127,8,ENAI SPUR - EB,1,Poor Location Description,-151.104522,60.553311,AK,8793,2001,2,2,112,1
34,-148.98950879535568,60.818393206296086,6035,02000128,000128,1,LACER RIVER - NB,2,Poor Location Description,-148.989509,60.818393,AK,0,2001, ,2,20,1
35,-149.97987779627803,61.14809920660339,6036,02000129,000129,0,AND LAKE - NB,2,Not on NHPN - Poor location description,-149.979878,61.1481,AK,2807,2001,17,2,0,1
36,-149.79774179610828,61.198905206650565,6037,02000131,000131,0,AST NORTHERN LIGHTS BLVD (PTR) - EB,1,"Not on NHPN, Poor location description",-149.797742,61.198906,AK,41595,2001,16,2,0,1
37,-149.5443717958724,61.31114220675492,6038,02000132,000132,0,"AGLE RIVER RD, AT CARIBOU ST - EB",3,Not on NHPN,-149.544372,61.311142,AK,8097,2001,16,2,0,1
38,-149.3898577957284,61.57304420699893,6039,02000133,000133,1,"ARKS HWY, AT NYE FORD - EB",1,Poor Location Description,-149.389858,61.573044,AK,0,2001, ,2,170,1
39,-149.37303579571287,60.485284205985806,6040,02000135,000135,3,MOOSE PASS MAINTENANCE STATION-ON SEWARD HWY (PERM,2,Poor Location Description,-149.373036,60.485284,AK,0,1999, ,2,112,1
40,-149.85377879616064,61.15236120660715,6041,02000143,000143,1,EWARD HWY-S OF 76TH ONRAMP-NB,3, ,-149.853778,61.152361,AK,0,2001, ,2,20,1
41,-149.45947379579337,60.51159820601049,6042,02000180,000180,3,OOSE PASS BY FISH HATCHERY-ON SEWARD HWY (PERM RE,2,Poor Location Description,-149.459474,60.511598,AK,1740,2001,2,2,112,1
42,-149.91020179621316,61.20484920665604,6043,02000237,000237,7,INNESOTA DR @ CHESTER CREEK (EXCLUDING SPENARD ON,3, ,-149.910202,61.204849,AK,35329,2001,14,2,20,1
43,-143.0040597897812,63.30603120861304,6044,02000502,000502,1,** TOK *** TOK CUTOFF AT TOK JUNCTION (EB),3, ,-143.00406,63.306031,AK,991,2001,1,2,240,1
44,-141.4518547883355,62.84514220818369,6045,02000503,000503,1,LASKA HIGHWAY AT GARDINER CREEK MAINT CAMP (EB),2,Poor Location Description,-141.451855,62.845142,AK,406,2001,1,2,240,1
45,-147.70091079415556,64.84463121004597,6046,02000504,000504,2,"TEESE EXPRESSWAY, CHENA BRIDGE (NB)",3, ,-147.700911,64.844631,AK,26819,2001,14,2,90,1
46,-145.47808179208528,62.13895220752608,6047,02000505,000505,1,ICHARDSON HIGHWAY AT GULKANA AIRFIELD (NB),3, ,-145.478082,62.138952,AK,1121,2001,1,2,261,1
47,-147.55417079401877,64.97366821016617,6048,02000506,000506,0,"TEESE HIGHWAY, NORTH OF FOX (EB)",2,Location description not precise,-147.55417,64.973668,AK,1513,2001,6,2,90,1
48,-147.703620794158,64.8514682100523,6049,02000507,000507,0,OLLEGE ROAD AT BENTLEY MALL (EB),3, ,-147.70362,64.851469,AK,16305,2001,16,2,90,1
49,-145.79302079237863,63.41414020871372,6050,02000508,000508,3,RICHARDSON HIGHWAY AT TRIMS CAMP (NB),3, ,-145.793021,63.41414,AK,0,1999, ,2,240,1
50,-147.63249279409183,64.97966121017163,6051,02000510,000510,2,"LLIOTT HIGHWAY, NORTH OF FOX (NB)",2,Description not precise,-147.632493,64.979661,AK,1071,2001,2,2,90,1
51,-145.12008779175196,61.42955020686542,6052,02000511,000511,3,ICHARDSON HIGHWAY AT ERNESTINE (NB),3, ,-145.120088,61.429551,AK,0,2001, ,2,261,1
52,-149.09647979545528,64.56205220978278,6053,02000512,000512,1,ARKS HIGHWAY AT NENANA (NB),3, ,-149.096479,64.562052,AK,1534,2001,1,2,290,1
53,-146.91483479342355,61.9848552073825,6054,02000513,000513,1,LENN HIGHWAY AT NELCHINA MAINTENANCE STATION (NB),1,Poor Location Description,-146.914835,61.984855,AK,877,2001,1,2,261,1
54,-146.25689879281072,61.120181206577286,6055,02000514,000514,3,ICHARDSON HIGHWAY AT 3 MILE (EB),3, ,-146.256899,61.120181,AK,24092,2001,11,2,261,1
55,-147.9987837944329,64.84667821004768,6056,02000515,000515,1,ARKS HIGHWAY AT ESTER (NB),3, ,-147.998784,64.846678,AK,2290,2001,1,2,90,1
56,-147.84298479428776,64.84304021004435,6057,02000516,000516,1,"ARKS HIGHWAY, CHENA BRIDGE (NB)",3, ,-147.842985,64.84304,AK,14775,2001,11,2,90,1
57,-147.7551437942061,64.82209521002483,6058,02000517,000517,1,ARKS HIGHWAY AT LATHROP STREET (EB),3, ,-147.755143,64.822095,AK,13511,2001,11,2,90,1
58,-147.75065479420184,64.83733021003911,6059,02000518,000518,3,IRPORT WAY BETWEEN LATHROP STREET AND WILBUR STRE,3, ,-147.750655,64.83733,AK,18499,2001,14,2,90,1
59,-146.34143579288934,61.13132420658762,6060,02000519,000519,3,** VALDEZ *** RICHARDSON HIGHWAY AT VALDEZ (NB),3, ,-146.341436,61.131325,AK,4670,2001,2,2,261,1
60,-147.67565379413213,64.87129821007083,6061,02000520,000520,0,ARMERS LOOP ROAD WEST OF STEESE EXPRESSWAY (NB),2,"Not on NHPN, Poor location description",-147.675654,64.871298,AK,6543,2001,7,2,0,1
61,-147.40797579388274,64.84782221004889,6062,02000521,000521,0,"ORDALE ROAD, CHENA BRIDGE (NB)",3,Not on NHPN,-147.407975,64.847822,AK,1702,2001,17,2,0,1
62,-147.81017679425736,64.84369821004498,6063,02000522,000522,0,"NIVERSITY AVENUE, CHENA BRIDGE (NB)",3, ,-147.810177,64.843699,AK,18133,2001,14,2,90,1
63,-147.77603279422553,64.8428012100441,6064,02000523,000523,0,"EGER ROAD, CHENA BRIDGE (NB)",3,Not on NHPN,-147.776033,64.842801,AK,15309,2001,16,2,0,1
64,-147.71905979417235,64.84470721004607,6065,02000524,000524,0,"USHMAN STREET, CHENA BRIDGE (NB)",3,Not on NHPN,-147.71906,64.844708,AK,15224,2001,16,2,0,1
65,-147.70910579416312,64.84562721004686,6066,02000525,000525,0,"WENDELL STREET, CHENA BRIDGE (NB)",2,"Couldn't find Wendell cross w/ Chena , Not on NHPN",-147.709106,64.845627,AK,9521,1999,16,2,0,1
66,-147.70754879416177,64.83586221003769,6067,02000526,000526,3,IRPORT WAY BETWEEN STEESE EXPWY AND NOBLE STREET,3, ,-147.707548,64.835863,AK,16553,2001,14,2,90,1
67,-147.8006177942484,64.85711821005759,6068,02000527,000527,0,OLLEGE ROAD EAST OF HAYES STREET (EB),3, ,-147.800617,64.857118,AK,8628,2001,16,2,90,1
68,-147.1397647936328,64.70287720991377,6069,02000528,000528,1,ICHARDSON HIGHWAY AT MOOSE CREEK (EB),3, ,-147.139765,64.702877,AK,9426,2001,1,2,90,1
69,-147.56570579402958,64.81802921002094,6070,02000529,000529,0,AST END BADGER LOOP ROAD (NB),2,Poor Location Description,-147.565706,64.818029,AK,7807,2001,17,2,90,1
70,-111.88191276079648,48.45906319478552,6071,30000061,000061,1,JUST N OF MARIAS INT MP 359.5,3, ,-111.881912,48.459063,MT,2721,1999,1,30,101,1
71,-114.34602976309132,47.833847194203365,6072,30000062,000062,7,00.8 MILES N. OF ELMO M.P.78.0,3, ,-114.346029,47.833848,MT,4073,1999,2,30,47,1
72,-105.98729975530676,45.561690192087376,6073,30000063,000063,7,10.5 MILES EAST OF FAS484 MP 76.7,3, ,-105.9873,45.56169,MT,719,1999,2,30,75,1
73,-111.27237676022877,45.26814319181392,6074,30000064,000064,0,01.0 MILE WEST OF U.S. 191 MP1,3, ,-111.272377,45.268144,MT,6210,1999,7,30,31,1
74,-112.5246627613951,45.990397192486334,6075,30000065,000065,1,BETWEEN MONT. ST. AND HARRISON AVE.INTRS.MP 127,3, ,-112.524663,45.990398,MT,13752,1999,1,30,93,1
75,-113.37103676218328,47.01651219344223,6076,30000066,000066,0,01.0 MILE NORTH OF MT.200 MP1,3, ,-113.371037,47.016512,MT,2215,1999,6,30,63,1
76,-113.97897976274947,46.87163819330733,6077,30000067,000067,0,VAN BURREN ST SOUTH OF POPLAR MISSOULA,3,Not on NHPN,-113.97898,46.871638,MT,9529,1999,6,30,0,1
77,-113.99327376276278,46.85723919329383,6078,30000068,000068,0,BECKWITH WEST OF HILDA MISSOULA,2,Not on NHPN,-113.993274,46.857239,MT,2775,1999,7,30,0,1
78,-112.79824176164992,46.23571719271495,6079,30000069,000069,0,S273 1 MILE NORTH OF P47 NEAR GALEN,1,Poor Location Description,-112.798242,46.235717,MT,0,1999, ,30,0,1
79,-112.67971676153958,46.955089193385,6080,30000070,000070,7,01.2 MILES EAST OF LINCOLN  MP 73,3, ,-112.679717,46.955089,MT,2193,1999,2,30,49,1
80,-111.26190076021908,47.510402193902166,6081,30000042,000042,0,26TH.ST.N BET.4TH.AND 5TH.AVE.GREAT FALLS,3,Not on NHPN,-111.261901,47.510402,MT,3365,1999,6,30,0,1
81,-111.22977476018916,45.278986191824174,6082,30000043,000043,7,01.5 MILES NORTH OF MT.64 M.P.49.8,3, ,-111.229775,45.278986,MT,5148,1999,2,30,31,1
82,-109.89440475894548,48.56036819488014,6083,30000046,000046,7,09.0 MILES WEST OF HAVRE M.P. 372.9,3, ,-109.894405,48.560369,MT,1466,1999,2,30,41,1
83,-114.08761976285064,46.62111119307389,6084,30000047,000047,7,01.0 MILES SOUTH OF FLORENCE M.P.73.7,3, ,-114.08762,46.621111,MT,8944,1999,2,30,81,1
84,-106.81551875607806,46.2423901927212,6085,30000049,000049,0,00.5 MILES SOUTH OF I 94 M.P. 50.7,3, ,-106.815518,46.24239,MT,888,1999,6,30,87,1
85,-108.4705577576194,45.81323819232146,6086,30000050,000050,7,MAIN ST. BET. MILTON RD. AND  HANSEN LN. BILLINGS,2, ,-108.470558,45.813238,MT,0,1999, ,30,111,1
86,-108.57265375771452,45.77696619228789,6087,30000051,000051,0,BROADWATER BET. 22ND ST.AND GAY PLACE BILLINGS,2, ,-108.572653,45.776966,MT,14388,1999,2,30,111,1
87,-108.43797175758908,45.80194619231122,6088,30000052,000052,0,OLD HARDIN RD. BET. PETERS AND PICOLO BILLINGS,2,Not on NHPN,-108.437971,45.801946,MT,3812,1999,6,30,0,1
88,-105.21222175458472,46.43433819290004,6089,30000053,000053,0,36.6 MILES EAST OF I 94 NEAR  LOCATE M.P.36.6,3, ,-105.212222,46.434338,MT,0,1999, ,30,17,1
89,-108.56230175770496,45.77223619228341,6090,30000054,000054,0,19TH ST. BET. WYOMING AND YELLOWSTONE BILLINGS,2,Not on NHPN,-108.562301,45.772237,MT,8224,1999,7,30,0,1
90,-110.49913275950864,48.55314219487342,6091,30000055,000055,7,2.5 MILES E OF RYEGATE  MP 133,3, ,-110.499132,48.553142,MT,0,1999, ,30,41,1
91,-114.16086876291882,46.278624192754975,6092,30000056,000056,7,02.5 MILES NORTH OF HAMILTON M.P.51.0,3, ,-114.160868,46.278624,MT,11244,1999,2,30,81,1
92,-107.34591975657212,45.28196419182683,6093,30000057,000057,1,JUST S OF LODGEGRASS MP 533.3,3, ,-107.34592,45.281965,MT,3835,1999,1,30,3,1
93,-109.24060675833644,45.22056819176976,6094,30000058,000058,0,01.8 MILES NORTH OF RED LODGE M.P.72.0,3, ,-109.240607,45.220568,MT,2782,1999,6,30,9,1
94,-108.5389927576832,45.75203919226448,6095,30000059,000059,1,BILLINGS URBAN MP 447,3, ,-108.538993,45.75204,MT,24424,1999,1,30,111,1
95,-114.12777876288804,48.37770419470992,6096,30000060,000060,7,01.5 MILES N. OF COLUMBIA FALLS HEIGHTS MP 139.6,3, ,-114.127779,48.377705,MT,6518,1999,2,30,29,1
96,-113.81339976259528,46.82792819326654,6097,30000001,000001,1,10.0 MILES EAST OF MISSOULA M.P.114.5,3, ,-113.813399,46.827928,MT,0,1999, ,30,63,1
97,-111.81454676073366,46.56895419302537,6098,30000002,000002,7,09.0 MILES EAST OF HELENA M.P.54.5,3, ,-111.814547,46.568954,MT,5645,1999,2,30,43,1
98,-111.99560376090233,46.58954919304471,6099,30000003,000003,1,00.5 MILES SOUTH OF HELENA M.P.192.0,3, ,-111.995604,46.589549,MT,10300,1999,1,30,49,1
99,-104.60188775401636,47.10466719352416,6100,30000004,000004,1,01.7 MILES EAST OF GEYSER M.P.23.0,3, ,-104.601888,47.104667,MT,0,1999, ,30,21,1
100,-104.18840875363132,46.97615219340452,6101,30000005,000005,0,01.0 MILES SOUTH OF WIBAUX M.P.79.1,3, ,-104.188409,46.976153,MT,713,1999,6,30,109,1
101,-111.33423676028627,45.84947419235528,6102,30000006,000006,1,00.5 MILES SOUTH OF MANHATTAN,1,"Not in CTFIPS 97 but in 31,  Not on NHPN",-111.334237,45.849474,MT,1117,1999,7,30,31,1
102,-112.0194747609246,47.037647193462014,6103,30000007,000007,1,06.5 MILES NORTH OF WOLF CREEKM.P.230.5,3, ,-112.019475,47.037647,MT,0,1999, ,30,49,1
103,-114.17787976293464,47.2732111936811,6104,30000008,000008,7,00.5 MILES SOUTH OF RAVALLI M.P.26.7,3, ,-114.17788,47.273211,MT,0,1999, ,30,47,1
104,-111.46120076040462,47.547984193937054,6105,30000009,000009,1,07.0 MILES WEST OF GREAT FALLSM.P.287.0,3, ,-111.461201,47.547984,MT,8389,1999,1,30,13,1
105,-105.60417475494997,48.105218194456135,6106,30000010,000010,7,02.0 MILES EAST OF WOLF POINT M.P.592.6,3, ,-105.604175,48.105218,MT,2229,1999,2,30,85,1
106,-108.63218875776988,45.717866192232805,6107,30000011,000011,1,06.0 MILES WEST OF BILLINGS M.P.441.8,3, ,-108.632189,45.717867,MT,0,1999, ,30,111,1
107,-109.59153175866344,47.03850519346281,6108,30000012,000012,7,06.0 MILES WEST OF LEWISTOWN M.P.76.2,3, ,-109.591532,47.038505,MT,2187,1999,2,30,27,1
108,-109.42547975850874,47.1604281935762,6109,30000013,000013,0,07.0 MILES NORTH OF LEWISTOWN M.P.9.5,3, ,-109.42548,47.160429,MT,1223,1999,6,30,27,1
109,-112.7680477616218,45.20615319175618,6110,30000014,000014,0,07.0 MILES SOUTHWEST OF DILLONM.P.6.0,3, ,-112.768048,45.206153,MT,839,1999,6,30,1,1
110,-113.78853576257212,46.89238919332661,6111,30000015,000015,7,04.0 MILES NORTHEAST OF BONNERM.P.5.2,3, ,-113.788535,46.892389,MT,4356,1999,2,30,63,1
111,-112.59636976146167,46.00622519250118,6112,30000016,000016,1,03.0 MILES WEST OF BUTTE M.P. 123.0,3, ,-112.59637,46.006226,MT,15550,1999,1,30,93,1
112,-110.88024275986366,45.22321319177208,6113,30000020,000020,7,17.0 MILES NORTH OF GARDINER M.P.18.0,3, ,-110.880243,45.223213,MT,1554,1999,2,30,67,1
113,-112.01948476092451,46.59262519304729,6114,30000021,000021,0,MONT. AVE. BET. BILLINGS AND  MISSOULA AVE.HELENA,3,Reference Streets not in database,-112.019484,46.592625,MT,21862,1999,2,30,49,1
114,-106.10194575541344,46.60112219305529,6115,30000022,000022,0,18.3 MILES NORTH OF MILES CITY M.P.18.3,3, ,-106.101946,46.601123,MT,319,1999,6,30,17,1
115,-108.7660687578946,48.56590819488519,6116,30000023,000023,0,02.5 MILES NORTH OF HARLEM,3, ,-108.766069,48.565908,MT,310,1999,7,30,5,1
116,-114.35628576310084,48.19712919454173,6117,30000024,000024,7,01.3 MILES WEST OF KALISPELL M.P.118.9,3, ,-114.356286,48.197129,MT,8742,1999,2,30,29,1
117,-118.16127776664456,48.80492819510784,6118,53P260AA,P260AA,2,218MP 260.00 N/O COUNTY ROAD - ORIENT,3, ,-118.161278,48.804928,WA,700,2000,2,53,19,1
118,-118.0036687664978,48.77916319508388,6119,53P270AA,P270AA,0,218MP 097.00 N/O BOSSBURG ROAD - NORTHPORT,3, ,-118.003669,48.779163,WA,391,2000,6,53,65,1
119,-117.34885976588792,47.963372194324,6120,53P280AA,P280AA,7,218MP 301.40 S/O NORWOOD ROAD - CHATTAROY,3, ,-117.34886,47.963372,WA,17592,2000,2,53,63,1
120,-120.47616876880048,46.594843193049485,6121,53P290AA,P290AA,1,218MP 034.02 N/O SR 24 - YAKIMA,3, ,-120.476169,46.594843,WA,45806,2000,11,53,77,1
121,-117.19086076574077,47.518860193910136,6122,53P300AA,P300AA,0,218MP 077.30 ON SR 27 N/O GIBBS ROAD,2,MP conflicts W/ relative location (N/O Gibbs Road),-117.190861,47.51886,WA,57075,2000,7,53,63,1
122,-122.86715677102733,47.04045019346461,6123,53P400AA,P400AA,1,218MP 106.70 AT BOULEVARD ROAD UXING - OLYMPIA,3, ,-122.867156,47.04045,WA,140437,2000,11,53,67,1
123,-122.6601707708346,45.64454119216429,6124,53P5005A,P5005A,1,218MP 001.98 S/O SR 500/39TH ST. I/C,3, ,-122.66017,45.644541,WA,123849,2000,11,53,11,1
124,-122.21953577042429,47.41185019381033,6125,53P600AA,P600AA,7,218MP 023.70 ON SR 167 N/O S212TH ST I/C,3, ,-122.219535,47.41185,WA,119061,2000,12,53,33,1
125,-118.50428076696404,47.01502719344086,6126,53P7C05A,P7C05A,2,218MP 093.01 S/O SR90 I/C,3, ,-118.504281,47.015027,WA,7052,2000,2,53,1,1
126,-122.1918047703984,48.17592819452198,6127,53R0011A,R0011A,1,206MP 207.76 N/O LAKE GOODWIN RD I/C - MARYSVILLE,3, ,-122.191805,48.175929,WA,0,2000, ,53,61,1
127,-122.99146577114306,47.04621419346972,6128,53R0031A,R0031A,3,206MP 361.37 N/O SR 8 - OLYMPIA,3, ,-122.991466,47.046214,WA,0,2000, ,53,67,1
128,-122.98500777113702,47.04251119346657,6129,53R0033A,R0033A,3,206MP 361.70 E/O SR 8 - OLYMPIA,3, ,-122.985008,47.042511,WA,0,2000, ,53,67,1
129,-104.1682097536124,46.98861719341608,6130,30000025,000025,1,00.5 MILES EAST OF WIBAUX M.P.242.8,3, ,-104.16821,46.988617,MT,2764,1999,1,30,109,1
130,-123.0109087711612,47.056941193479936,6131,53R0037A,R0037A,3,206MP 020.67 AT SR 101 OXING - OLYMPIA,3, ,-123.010909,47.056941,WA,0,2000, ,53,67,1
131,-108.75178875788129,47.392986193792815,6132,30000027,000027,7,10.5 MILES NE OF ROY MP 70,3, ,-108.751789,47.392986,MT,585,1999,2,30,27,1
132,-120.88780276918396,47.17307619358815,6133,53R0067A,R0067A,1,MP 085.06 W/O SR 970 I/C - CLE ELUM,3, ,-120.887803,47.173076,WA,0,1999, ,53,37,1
133,-114.90273276360992,47.194865193608216,6134,30000030,000030,1,00.7 MILES WEST OF SUPERIOR   INTERCHANGE M.P.46.8,3, ,-114.902733,47.194865,MT,6409,1999,1,30,61,1
134,-118.84620976728252,46.06184819255316,6135,53R0083A,R0083A,7,206MP 307.90 E/O SR 730 SPUR - WALLULA,3, ,-118.84621,46.061848,WA,6170,2000,2,53,71,1
135,-105.99170775531084,46.31823419279192,6136,30000031,000031,1,08.0 MILES WEST OF MILES CITY M.P.129.2,3, ,-105.991707,46.318235,MT,3980,1999,1,30,17,1
136,-117.8247177663311,47.40741819380633,6137,53R0142A,R0142A,1,206MP 254.50 NE/O FISHTRAP ROAD I/C,3, ,-117.824718,47.407419,WA,0,2000, ,53,43,1
137,-111.26348176022044,47.51038319390205,6138,30000032,000032,0,25TH ST.BET.4TH AND 5TH AVE.N.GREAT FALLS,3,Not on NHPN,-111.263482,47.510383,MT,4054,1999,6,30,0,1
138,-122.25251977045492,47.58947019397591,6139,53R0173A,R0173A,1,MP 003.94 ON SR 90 E/O RAINEER AVENUE SOUTH I/C,3, ,-122.25252,47.58947,WA,0,1999, ,53,33,1
139,-111.29031276024556,47.49419219388721,6140,30000033,000033,5,10TH. AVE.S.BET. 9TH AND 10TH.ST. GREAT FALLS,3, ,-111.290313,47.494193,MT,38776,1999,2,30,13,1
140,-122.99715777114824,46.774287193216765,6141,53R0195A,R0195A,1,206MP 086.32 S/O SR 12 I/C - GRAND MOUND,3, ,-122.997158,46.774287,WA,60439,2000,1,53,67,1
141,-106.79505775605888,46.29834419277335,6142,30000034,000034,0,05.0 MILES NW OF FORSYTH M.P. 265.0,3, ,-106.795058,46.298345,MT,233,1999,6,30,87,1
142,-119.1321077675488,46.83335419327158,6143,53R0205A,R0205A,7,206MP 030.37 S/O LEE ROAD - OTHELLO,1,Poor Location Description,-119.132108,46.833354,WA,5287,2000,2,53,1,1
143,-113.83044476261124,46.83952119327732,6144,30000035,000035,0,03.0 MILES SE OF BONNER,2,Not on NHPN,-113.830444,46.839521,MT,1074,1999,7,30,0,1
144,-117.34922176588836,47.7984801941704,6145,53R021AA,R021AA,7,206MP 289.79 E/O WALTON AVENUE - SPOKANE,3, ,-117.349221,47.79848,WA,45185,2000,14,53,63,1
145,-113.02660476186249,48.5483491948687,6146,30000036,000036,7,00.5 MILES WEST OF BROWNING M.P.221.2,3, ,-113.026605,48.548349,MT,1892,1999,2,30,35,1
146,-123.29231677142316,48.0962141944476,6147,53R069AA,R069AA,7,206MP 254.45 AT WEIGH STATION-PORT ANGELES,3, ,-123.292317,48.096214,WA,23162,2000,2,53,9,1
147,-114.00149276277055,46.87066019330632,6148,30000037,000037,0,SOUTH OF ORANGE ST.BRIDGE MISSOULA,3, ,-114.001493,46.870661,MT,21219,1999,2,30,63,1
148,-117.9054797664064,48.54868819486904,6149,53R070AA,R070AA,2,206MP 234.57 E/O SR 25-KETTLE FALLS,3, ,-117.90548,48.548688,WA,7786,2000,2,53,65,1
149,-124.26621977233026,48.07017719442352,6150,53R073AA,R073AA,7,206MP 203.93 E/O SR 113/BURNT MOUNTAIN ROAD - SAP,3, ,-124.266219,48.070177,WA,2376,1999,2,53,9,1
150,-106.92761475618248,47.30782719371342,6151,30000038,000038,7,01.0 MILES WEST OF JORDAN M.P.211.0,3, ,-106.927615,47.307828,MT,432,1999,2,30,33,1
151,-123.8553257719477,46.43064819289656,6152,53R0741A,R0741A,3,206MP 028.95 N/O SR 4 - JOHNSON'S LANDING,3, ,-123.855326,46.430648,WA,2494,2000,2,53,49,1
152,-112.50645476137804,48.20984119455351,6153,30000039,000039,0,00.5 MILES NORTH OF DUPUYER M.P.75.9,3, ,-112.506455,48.209841,MT,352,1999,6,30,73,1
153,-122.635962770812,46.53294019299198,6154,53R0753A,R0753A,7,206MP 077.78 E/O KENNEDY ROAD-SALKUM,3, ,-122.635963,46.53294,WA,6749,2000,2,53,41,1
154,-110.4238247594385,45.71310219222817,6155,30000041,000041,1,07.5 MILES EAST OF LIVINGSTON M.P.342.0,3, ,-110.423825,45.713102,MT,0,1999, ,30,67,1
155,-120.82775476912792,45.69426919221074,6156,53R0767A,R0767A,7,206MP 100.64 W/O SR 14 MARYHILL SPUR - MARYHILL,3, ,-120.827754,45.69427,WA,1912,2000,2,53,39,1
156,-115.59739176425684,46.144778192630376,6157,16000085,000085,7,"1 MI. N.E. OF SELWAY RIVER RD., LOWELL",2, ,-115.597392,46.144778,ID,658,2001,2,16,49,1
157,-120.79639176909885,45.702201192218126,6158,53R0777A,R0777A,0,206MP 102.27 W/O MARYHILL ROAD-MARYHILL,3, ,-120.796392,45.702201,WA,1743,2000,7,53,39,1
158,-116.9153717654842,47.71262619409056,6159,16000001,000001,1,"1.0 MILES WEST OF SH-41, POST FALLS",3, ,-116.915372,47.712626,ID,25219,2001,11,16,55,1
159,-123.02559077117483,46.17714319266042,6160,53R078AA,R078AA,7,206MP 055.14 E/O FALL CREEK ROAD-STELLA,3, ,-123.025591,46.177143,WA,5832,2000,2,53,15,1
160,-116.8587547654314,46.44900019291378,6161,16000006,000006,7,"7.0 MILES E. OF JCT US-12, LEWISTON",3, ,-116.858755,46.449,ID,10519,2001,2,16,69,1
161,-120.22389276856552,46.38263119285165,6162,53R0804A,R0804A,1,MP 055.08 SE/O DIVISION RD I/C - ZILLAH,3, ,-120.223893,46.382631,WA,0,1999, ,53,77,1
162,-119.21597176762673,46.27363219275037,6163,53R081AA,R081AA,1,206MP 006.34 AT COLUMBIA RIVER BRIDGE - PASCO,3, ,-119.215971,46.273632,WA,44398,2000,11,53,21,1
163,-116.41280176501618,47.57118819395874,6164,16000008,000008,1,"1.6 MILES E. OF JCT SH-3, DUDLEY",3, ,-116.412802,47.571188,ID,11202,2001,1,16,55,1
164,-122.19290777039944,47.97122419433152,6165,53R0825A,R0825A,1,206MP 193.29 S/O PACIFIC AVE I/C - EVERETT,3, ,-122.192908,47.971224,WA,163875,2000,11,53,61,1
165,-116.93054176549845,46.95753719338735,6166,16000015,000015,7,"2.0 NORTH OF JCT SH-6, POTLATCH",3, ,-116.930542,46.957537,ID,2731,2001,2,16,57,1
166,-122.15880977036744,48.24062119458228,6167,53R0831A,R0831A,0,206MP 032.98 N/O 269TH PLACE NE-ARLINGTON,3, ,-122.158809,48.240621,WA,1882,2000,7,53,61,1
167,-116.3083167649188,48.71712419502597,6168,16000016,000016,7,"1.0 MI. S. OF JCT US-2, BONNERS FERRY",3, ,-116.308317,48.717124,ID,7961,2001,2,16,21,1
168,-120.19649976853997,47.73424819411082,6169,53R0841A,R0841A,7,206MP 220.55 N/O BRAYS ROAD - ORONDO,2,MP conflicts with relative location,-120.1965,47.734249,WA,4073,2000,2,53,17,1
169,-116.04876476467712,46.25264919273086,6170,16000019,000019,7,"2.2 MILES N.W. OF JCT SH-64, KAMIAH",3, ,-116.048764,46.25265,ID,2125,2001,2,16,61,1
170,-122.63190477080812,47.864921194232295,6171,53R085AA,R085AA,7,206MP 013.92 AT HOOD CANAL BRIDGE,3, ,-122.631904,47.864921,WA,16337,2000,2,53,31,1
171,-116.74255376532324,47.86712119423436,6172,16000021,000021,7,NORTH LIMITS OF CHILCO,3, ,-116.742554,47.867121,ID,14645,2001,2,16,55,1
172,-119.33115976773404,45.93910419243867,6173,53R0865A,R0865A,1,206MP 132.03 S/O SR 14 I/C - PLYMOUTH,3, ,-119.33116,45.939104,WA,0,2000, ,53,5,1
173,-120.29354276863045,47.40988719380864,6174,53S103AA,S103AA,0,206MP 000.21 AT COLUMBIA RIV BR - WENATCHEE,3, ,-120.293543,47.409887,WA,50360,2000,12,53,17,1
174,-116.43721476503904,48.32354219465946,6175,16000026,000026,0,"6.4 MILES EAST OF JCT US-95, KOOTENAI",3, ,-116.437215,48.323542,ID,4226,2001,6,16,17,1
175,-122.3080607705066,47.804999194176325,6176,53S189AA,S189AA,1,206MP 179.77 I-5 N OF 220 ST. SW I/C,3, ,-122.308061,47.804999,WA,193282,2000,11,53,61,1
176,-116.65761476524423,47.39485919379444,6177,16000027,000027,0,"0.3 MI. S. OF JCT SH-97, ST. MARIES",3, ,-116.657615,47.394859,ID,1647,2001,6,16,55,1
177,-119.36711176776772,47.62032719400446,6178,53S200AA,S200AA,7,206MP 179.10 E/O J SE - COULEE CITY,3, ,-119.367112,47.620328,WA,0,2000, ,53,17,1
178,-116.20421576482198,45.94606919244522,6179,16000039,000039,7,0.1 MILE NORTHWEST OF FENN,3, ,-116.204216,45.946069,ID,3025,2001,2,16,49,1
179,-122.26746477046892,47.47100019386544,6180,53S2011A,S2011A,1,MP 155.13 ON SR 5 N/O SR 405/SR 518 I/C,3, ,-122.267465,47.471,WA,0,1999, ,53,33,1
180,-116.9277157654958,47.79393619416624,6181,16000040,000040,0,"2.8 MILES S.W. OF JCT SH-41, RATHDRUM",3, ,-116.927716,47.793936,ID,6918,2001,2,16,55,1
181,-122.26426477046576,47.45191719384774,6182,53S2015A,S2015A,1,MP 153.75 ON SR 5 S/O SOUTHCENTER PARKWAY I/C,3, ,-122.264265,47.451917,WA,0,1999, ,53,33,1
182,-116.8707057654426,47.83351419420296,6183,16000041,000041,0,"1.2 MI. N. OF JCT SH-53, N. RATHDRUM",3, ,-116.870706,47.833514,ID,9128,2001,6,16,55,1
183,-122.26861077046972,47.47442219386864,6184,53S201AA,S201AA,1,206MP 155.38 I-5/N OF I 405/SR 518 I/C,3, ,-122.268611,47.474422,WA,246297,2000,11,53,33,1
184,-116.68689676527153,47.94792719430956,6185,16000042,000042,0,"0.5 MILE EAST OF JCT US-95, ATHOL",3, ,-116.686897,47.947928,ID,2606,2001,7,16,55,1
185,-122.3188217705166,47.58532619397192,6186,53S2025A,S2025A,1,MP 163.96 ON SR 5 S/O SR 90/SR 519 I/C,3, ,-122.318822,47.585326,WA,0,1999, ,53,33,1
186,-116.9478207655145,46.5394111929977,6187,16000098,000098,7,0.2 MILES SOUTH OF NEZ PERCE/LATAH COUNTY LINE,3, ,-116.947821,46.539411,ID,5012,2001,2,16,69,1
187,-122.31799477051592,47.578672193965815,6188,53S202AA,S202AA,1,206MP 163.50 I-5 S. OF I-90/SR 519 I/C,3, ,-122.317995,47.578672,WA,229583,2000,11,53,33,1
188,-116.39642276500103,46.885434193320286,6189,16000045,000045,0,"2.1 MILE NORTH OF JCT SH-8, BOVILL",3, ,-116.396423,46.885434,ID,592,2001,6,16,57,1
189,-122.1052227703176,47.56938919395713,6190,53S2033A,S2033A,1,MP 010.34 ON SR 90 E/O SR 405 I/C,3, ,-122.105223,47.569389,WA,0,1999, ,53,33,1
190,-116.31068976492104,48.94228719523573,6191,16000046,000046,7,"4.4 MILES N.E. OF JCT SH-1, COPELAND",3, ,-116.31069,48.942287,ID,1018,2001,2,16,21,1
191,-122.1137487703256,47.5723251939599,6192,53S203AA,S203AA,1,206MP 010.82 I-90 E. OF I-405 I/C,3, ,-122.113749,47.572326,WA,0,2000, ,53,33,1
192,-116.99082476555456,48.18071519452638,6193,16000047,000047,7,"2.6 MI E ID/WASH STATE LN, PRIEST RIVER",3, ,-116.990825,48.180715,ID,7943,2001,2,16,17,1
193,-116.29586476490712,45.502016192031874,6194,16000049,000049,7,6.7 MILES NORTH OF RIGGINS,3, ,-116.295864,45.502016,ID,2022,2001,2,16,49,1
194,-122.1782247703856,47.58825319397464,6195,53S2041A,S2041A,1,MP 011.69 ON SR 405 N/O SR 90 I/C,3, ,-122.178225,47.588253,WA,0,1999, ,53,33,1
195,-115.77349376442083,47.46865519386325,6196,16000072,000072,1,0.3 MI. EAST OF EAST MULLAN I.C.,3, ,-115.773494,47.468655,ID,6694,2001,1,16,79,1
196,-122.18505777039196,47.6061081939913,6197,53S204AA,S204AA,1,206MP 013.04 ON I-405 N OF SE 8TH ST I/C,3, ,-122.185058,47.606108,WA,199927,2000,11,53,33,1
197,-122.31754677051543,47.64293419402577,6198,53S502AA,S502AA,7,206MP 000.19 SR 520 E. OF I-5 I/C,3, ,-122.317547,47.642934,WA,59009,2000,12,53,33,1
198,-116.50113876509836,47.24252019365264,6199,16000112,000112,0,7.5 MILES NORTH OF JCT. SH-6,3, ,-116.501138,47.24252,ID,1847,2001,6,16,9,1
199,-122.95283777110711,46.11329019260092,6200,53S503AA,S503AA,3,206MP 000.70 AT COLUMBIA RIVER BR - LONGVIEW,3, ,-122.952838,46.11329,WA,19131,2000,14,53,15,1
200,-116.77804676535628,47.83004019419997,6201,16000113,000113,7,4.5 MILES NORTH OF HAYDEN,3, ,-116.778047,47.83004,ID,15822,2001,2,16,55,1
201,-116.06763776469484,48.65573519496888,6202,16000114,000114,7,1.9 MILES NORTHWEST OF IDAHO/MONTANA STATE LINE,3, ,-116.067637,48.655735,ID,1319,2001,2,16,21,1
202,-122.12274077033408,47.66707219404799,6203,53S547AA,S547AA,7,206MP 012.00 SR-520 E.OF W.LK.SAMM.PKWY,3, ,-122.122741,47.667073,WA,67156,2000,12,53,33,1
203,-116.51799476511422,46.50708519296768,6204,16000116,000116,7,8.2 MI.W. OF CLEARWATER-NEZPERCE COUNTY LINE,3, ,-116.517995,46.507085,ID,3453,2001,2,16,69,1
204,-119.73170176810704,46.64257319309405,6205,53S612AA,S612AA,0,206MP 043.50 AT COLUMBIA RIVER BRIDGE - VERNITA,3, ,-119.731702,46.642573,WA,3560,2000,6,53,5,1
205,-117.0057267655684,46.702846193150094,6206,16000124,000124,7,0.6 MI. S. OF PALOUSE RIVER BRIDGE (SOUTH MOSCOW,3, ,-117.005727,46.702846,ID,6287,2001,2,16,57,1
206,-122.64569477082108,48.20796419455184,6207,53S706AA,S706AA,7,206MP 020.02 E/O RHODODENDRON PARK DRIVE - COUPEV,3, ,-122.645695,48.207964,WA,8646,1999,2,53,29,1
207,-117.03609276559672,46.732535193177725,6208,16000125,000125,7,0.123 MI. E. OF WASHINGTON STATE LINE,3, ,-117.036092,46.732535,ID,14281,2001,14,16,57,1
208,-122.64388677081928,48.927511195222,6209,53S8035A,S8035A,1,206MP 269.41 S/O BIRCH BAY/LYNDEN RD I/C - CUSTER,3, ,-122.643887,48.927511,WA,26675,2000,1,53,73,1
209,-117.000892765564,46.749504193193374,6210,16000126,000126,7,0.6 MILES NORTH OF MOSCOW,3, ,-117.000893,46.749504,ID,6234,2001,14,16,57,1
210,-122.29121177049092,47.3746361937757,6211,53S8095A,S8095A,1,206MP 148.07 S/O SR 516 I/C - MIDWAY,3, ,-122.291212,47.374636,WA,191630,1999,11,53,33,1
211,-116.94821976551496,46.72304319316903,6212,16000127,000127,0,2.1 MILES EAST OF MOSCOW,3, ,-116.94822,46.723043,ID,4927,2001,6,16,57,1
212,-122.32584877052318,47.7588861941336,6213,53S817AA,S817AA,1,MP 176.46 ON SR 5 N\O NE 175TH ST I/C,3, ,-122.325849,47.758886,WA,0,1999, ,53,33,1
213,-116.95105676551748,48.27910019461796,6214,16000147,000147,0,8.0 MI. N. OF JCT US-2 (FALLS INN),3, ,-116.951056,48.279101,ID,1876,2001,7,16,17,1
214,-120.7777427690814,46.74844419319254,6215,53S8183A,S8183A,7,206MP 185.62 ON SR 12 EAST OF SR 410,3, ,-120.777742,46.748444,WA,4282,2000,2,53,77,1
215,-116.3588737649659,45.35604919189575,6216,16000150,000150,7,5.7 MILES SOUTH OF RIGGINS,3, ,-116.358874,45.356049,ID,2298,2001,2,16,49,1
216,-120.78544376908847,46.74822119319219,6217,53S8185A,S8185A,7,206MP 185.25 ON SR 12 S/O SR 410 I/C,3, ,-120.785444,46.748221,WA,2278,2000,2,53,77,1
217,-116.91538076548424,47.71262619409056,6218,16000152,000152,1,"1.0 MILE WEST OF RATHDRUMIC, POST FALLS",3, ,-116.915381,47.712626,ID,26625,2001,11,16,55,1
218,-120.7887167690917,46.748323193192455,6219,53S8187A,S8187A,0,206MP 116.26 ON SR 410 W/O SR 12,2,Mileage ends at 107.52,-120.788717,46.748324,WA,2301,2000,7,53,77,1
219,-103.99352975344976,48.14032119448874,6220,38000257,000257,7,MP2.4 2.4 MILES EAST OF MT.LINE,3, ,-103.99353,48.140321,ND,1259,1999,2,38,105,1
220,-122.90940777106675,46.2309511927105,6221,53S819AA,S819AA,0,206MP 007.97 S/O SANDY BEND ROAD - LEXINGTON,3, ,-122.909408,46.230951,WA,4233,2000,7,53,15,1
221,-103.9934517534498,48.14032019448881,6222,38000258,000258,7,MP2.4 2.4 MILES EAST OF MT.LINE,3, ,-103.993452,48.14032,ND,0,1999, ,38,105,1
222,-118.70105776714736,48.65280119496612,6223,53S8207A,S8207A,0,206MP 304.60 W/O FAIRGROUNDS ROAD-REPUBLIC,3, ,-118.701058,48.652801,WA,2531,2000,6,53,19,1
223,-122.88417477104328,47.99589919435432,6224,53R0235A,R0235A,7,206MP 281.15 S/O OLD GARDINER RD-DISCOVERY BAY,3, ,-122.884175,47.995899,WA,11309,2000,2,53,31,1
224,-122.19666777040288,47.52373719391448,6225,53S821AA,S821AA,1,206MP 006.95 I-405 N OF 30TH ST I/C,3, ,-122.196668,47.523738,WA,144783,2000,11,53,33,1
225,-122.88630477104516,47.98836719434728,6226,53R0236A,R0236A,7,206MP 281.81 S/O OLD GARDINER ROAD - DISCOVERY BA,3, ,-122.886305,47.988367,WA,0,1999, ,53,31,1
226,-122.18098177038814,47.687705194067455,6227,53S8221A,S8221A,1,MP 018.71 N/O SR 908 I/C - KIRKLAND,3, ,-122.180982,47.687706,WA,0,1999, ,53,33,1
227,-122.4613097706492,47.2129231936251,6228,53R034AA,R034AA,1,206MP 131.18 AT 48TH ST UXING - TACOMA,3, ,-122.461309,47.212923,WA,192176,2000,11,53,53,1
228,-122.18098177038814,47.687705194067455,6229,53S822AA,S822AA,1,206MP 018.71 I-405 N OF SR908 I/C,3, ,-122.180982,47.687705,WA,180610,2000,11,53,33,1
229,-117.2941627658369,47.67150219405232,6230,53R036AA,R036AA,1,MP 285.00 ON SR 90 W/O 3RD AVE - SPOKANE,3, ,-117.294163,47.671503,WA,105817,1999,11,53,63,1
230,-122.23967777044298,47.819279194189726,6231,53S824AA,S824AA,1,206MP 028.99 N/O DAMSON ROAD I/C - BOTHELL,3, ,-122.239677,47.819279,WA,107512,1999,11,53,61,1
231,-120.20017176854344,48.48057619480568,6232,53R037AA,R037AA,0,206MP 191.90 W/O RADER ROAD - WINTHROP,3, ,-120.200172,48.480576,WA,1850,2000,6,53,47,1
232,-122.04572877026224,47.54521119393462,6233,53S825AA,S825AA,1,206MP 014.65 W/O SR 900 I/C - ISSAQUAH,3, ,-122.045729,47.545211,WA,117545,2000,11,53,33,1
233,-121.33116776959672,47.71328719409102,6234,53R038AA,R038AA,7,206MP 050.12 E/O NE OLD CASCADE HIGHWAY - SKYKOMI,3, ,-121.331168,47.713287,WA,4450,1999,2,53,33,1
234,-121.88664277011412,47.508265193900165,6235,53S826AA,S826AA,1,206MP 023.54 E/O 82ND ST I/C - PRESTON,3, ,-121.886643,47.508266,WA,49589,2000,1,53,33,1
235,-121.7055907699455,47.46247619385751,6236,53R0397A,R0397A,1,206MP 033.56 W/O EDGEWICK ROAD I/C - NORTH BEND,3, ,-121.705591,47.462476,WA,31598,2000,1,53,33,1
236,-122.3720267705662,47.240764193651216,6237,53S837AA,S837AA,1,206MP 136.80 S/O SR 99 I/C - FIFE,3, ,-122.372027,47.240764,WA,184161,2000,11,53,53,1
237,-121.5639067698134,46.73551519318045,6238,53R0401A,R0401A,0,206MP 003.88 N/O SR 12 - PACKWOOD,3, ,-121.563907,46.735515,WA,818,2000,6,53,41,1
238,-121.8852827701128,47.4959721938888,6239,53S838AA,S838AA,7,206MP 027.50 S/O SR 90 - ECHO GLEN,3, ,-121.885282,47.495972,WA,18976,2000,2,53,33,1
239,-121.60800776985457,46.650513193101226,6240,53R0407A,R0407A,7,206MP 135.10 E/O TIMBERLINE DR - PACKWOOD,3, ,-121.608008,46.650513,WA,1862,2000,2,53,41,1
240,-122.28783777048784,47.497850193890365,6241,53S839AA,S839AA,0,206MP 001.40 E/O SR 99 I/C - TUKWILA,3, ,-122.287838,47.49785,WA,39761,2000,12,53,33,1
241,-122.59710077077578,46.37687619284639,6242,53S840AA,S840AA,0,206MP 018.98 KID VALLEY,3, ,-122.597101,46.376876,WA,1049,2000,7,53,15,1
242,-120.80197076910387,45.82810419233538,6243,53R041AA,R041AA,7,206MP 013.41 N/O STATE FRONTAGE RD,3, ,-120.80197,45.828104,WA,4660,2000,2,53,39,1
243,-123.87303277196406,46.24119219272012,6244,53S8412A,S8412A,3,206MP 000.01 NE/O SR 101 - MEGLER,3, ,-123.873033,46.241192,WA,2503,2000,2,53,49,1
244,-119.99151376834926,46.9402731933713,6245,53R042AA,R042AA,1,206MP 136.59 VANTAGE,3, ,-119.991514,46.940274,WA,14465,2000,1,53,37,1
245,-123.87322977196436,46.240888192719694,6246,53S8415A,S8415A,3,206MP 000.46 S/O SR 401 - MEGLER,3, ,-123.87323,46.240888,WA,0,2000, ,53,49,1
246,-124.09306077216912,46.85885219329532,6247,53R043AA,R043AA,0,206MP 030.73 E/O SR 105 WYE CONN,3, ,-124.09306,46.858852,WA,5804,2000,6,53,27,1
247,-123.87362977196472,46.24114619272007,6248,53S8418A,S8418A,0,206MP 000.47 NW/O SR 401 - MEGLER,3, ,-123.873629,46.241146,WA,0,2000, ,53,49,1
248,-122.5740507707544,47.30386219370989,6249,53R044AA,R044AA,4,206MP 008.43 NW/O TACOMA NARROWS BR - TACOMA,3, ,-122.574051,47.303863,WA,84956,2000,12,53,53,1
249,-121.44825576970584,47.39730719379702,6250,53S901AA,S901AA,1,206MP 047.71 AT TINKHAM ROAD UXING,3, ,-121.448256,47.397307,WA,28522,2000,1,53,33,1
250,-122.73797977090696,45.90006119240229,6251,53R045AA,R045AA,1,206MP 020.71 S/O SR 503 I/C - WOODLAND,3, ,-122.73798,45.900062,WA,66574,2000,1,53,11,1
251,-121.41475776967468,47.42681019382422,6252,53S902AA,S902AA,1,206MP 052.24 AT SR 906 OXING,3, ,-121.414758,47.42681,WA,26788,2000,1,53,33,1
252,-122.32156277051924,47.64529619402776,6253,53R0461A,R0461A,1,MP 168.31 ON SR 5 N/O SR 520 I/C,3, ,-122.321563,47.645296,WA,0,1999, ,53,33,1
253,-121.27451176954392,47.27545119368335,6254,53S903AA,S903AA,1,206MP 063.98 AT CABIN CREEK ROAD UXING,3, ,-121.274511,47.275452,WA,27249,2000,1,53,37,1
254,-122.3145097705126,47.64322819402593,6255,53R0463A,R0463A,7,MP 000.36 ON SR 520 E/O SR 5 I/C,3, ,-122.31451,47.643229,WA,0,1999, ,53,33,1
255,-122.94010377109517,45.19394119174478,6256,41024020,024020,0,3.0 mi. SE of St. Paul,3, ,-122.940104,45.193941,OR,2549,1999,6,41,47,1
256,-122.32195477051958,47.63675219402,6257,53R0465A,R0465A,1,MP 167.72 ON SR 5 S/O SR 520 I/C,3, ,-122.321954,47.636752,WA,0,1999, ,53,33,1
257,-119.6688717680485,45.4393011919733,6258,41025007,025007,0,1.0 mi. SE of Lexington,3, ,-119.668872,45.439301,OR,1456,1999,6,41,49,1
258,-120.58542476890236,47.5556461939443,6259,53R0473A,R0473A,7,206MP 104.84 DRYDEN,3, ,-120.585424,47.555646,WA,14782,2000,2,53,7,1
259,-122.41238677060367,45.54129319206828,6260,41026001,026001,1,1.3 mi. E of US 30 Bypass at Sandy River Bridge,3, ,-122.412387,45.541293,OR,29003,1999,11,41,51,1
260,-120.65711476896888,47.419053193817085,6261,53R0475A,R0475A,7,206MP 178.19 S/O SR 2-BLEWETT,2,MP conflicts w/ relative location (S/O SR2-Blewett),-120.657114,47.419053,WA,5090,2000,2,53,7,1
261,-120.59885176891476,47.56313819395137,6262,53R0477A,R0477A,7,206MP 103.92 PESHASTIN,3, ,-120.598852,47.563138,WA,12566,2000,2,53,7,1
262,-122.6936657708656,45.51580019204459,6263,41026002,026002,7,0.3 mi. W of I-405 Jct. in Portland,3, ,-122.693666,45.5158,OR,0,1999, ,41,51,1
263,-120.45677176878236,46.68974719313791,6264,53R048AA,R048AA,1,206MP 024.83 NE/O SR 821 I/C - SELAH,3, ,-120.456771,46.689747,WA,15777,2000,1,53,77,1
264,-122.40272077059466,45.49253719202278,6265,41026003,026003,7,5.2 mi. NW of ORE 212 Jct. E of Gresham,3, ,-122.402721,45.492537,OR,33745,1999,14,41,51,1
265,-122.70475077087596,47.64873219403102,6266,53R0501A,R0501A,4,206MP 044.33 N/O NEWBERRY HILL I/C - SILVERDALE,3, ,-122.70475,47.648732,WA,43369,2000,12,53,35,1
266,-122.67679677084992,45.61285419213488,6267,41026004,026004,1,"On Interstate Bridge, Oregon-Wash. state line",3, ,-122.676797,45.612854,OR,127002,1999,11,41,51,1
267,-122.55810177073954,45.62347419214496,6268,53R0511A,R0511A,1,206MP 029.09 N/O MILL PLAIN ROAD I/C - VANCOUVER,2,Relative location conflicts with MP,-122.558102,45.623474,WA,111447,2000,11,53,11,1
268,-122.68395277085664,45.50843419203765,6269,41026005,026005,1,0.6 mi. NW of I-5 Jct. in Portland,3, ,-122.683952,45.508434,OR,97153,1999,11,41,51,1
269,-122.18339577039046,47.97896719433855,6270,53R0523A,R0523A,7,206MP 000.26 E/O SR 5 I/C - EVERETT,3, ,-122.183395,47.978968,WA,70619,2000,12,53,61,1
270,-122.19676977040288,45.55088319207732,6271,41026012,026012,1,1.0 mi. W of Bridal Veil,2,Unexact reference point,-122.19677,45.550883,OR,695,1999,7,41,51,1
271,-120.3198287686548,47.472057193866526,6272,53R0533A,R0533A,7,206MP 119.77 E/O SR 97 AR I/C (OLDS BRIDGE) - WEN,3, ,-120.319829,47.472057,WA,20459,1999,12,53,7,1
272,-122.643593770819,45.53000419205773,6273,41026013,026013,1,1.3 mi. E of I-5 Jct. in Portland,3, ,-122.643594,45.530004,OR,0,1999, ,41,51,1
273,-123.92298377201062,47.18750619360152,6274,53R0545A,R0545A,7,206MP 104.55 S/O HENSEL RD - HUMPTULIPS,3, ,-123.922984,47.187506,WA,2405,2000,2,53,27,1
274,-120.17248076851774,45.23226219178036,6275,41011004,011004,0,0.4 mi. E of Condon,3, ,-120.172481,45.232263,OR,187,1999,7,41,21,1
275,-119.1878467676006,47.09445819351492,6276,53R0553A,R0553A,1,206MP 180.33 E/O SR 17 I/C - MOSES LAKE,3, ,-119.187847,47.094458,WA,10074,2000,1,53,25,1
276,-120.1625137685084,45.67196319218999,6277,41011007,011007,0,4.0 mi. S of Arlington,3, ,-120.162514,45.671963,OR,832,1999,6,41,21,1
277,-120.77301376907684,47.19610619360946,6278,53R057AA,R057AA,7,206MP 006.85 W/O TEANAWAY RD,3, ,-120.773014,47.196106,WA,4074,2000,2,53,37,1
278,-120.05564476840892,45.779093192289785,6279,41011008,011008,1,1.0 mi. W of ORE 74 Jct. near Arlington,3, ,-120.055644,45.779094,OR,0,1999, ,41,21,1
279,-120.82035476912095,47.77668119415021,6280,53R0587A,R0587A,7,206MP 080.20 E/O NASON RIDGE ROAD,3, ,-120.820354,47.776682,WA,3925,2000,2,53,7,1
280,-121.5683457698176,45.40579119194194,6281,41014003,014003,7,11.1 mi. S of Mt. Hood,3, ,-121.568346,45.405791,OR,926,1999,6,41,27,1
281,-120.28274276862042,47.53038719392058,6282,53R059AA,R059AA,7,206MP 201.53 ROCKY REACH,2,Location lies in Douglas County,-120.282743,47.530388,WA,6716,2000,16,53,17,1
282,-122.76810877093496,45.31047619185325,6283,41003011,003011,1,0.6 mi. N of Baldock Rest Area,1,not able to locate Baldock Rest Area,-122.768109,45.310476,OR,86811,1999,1,41,5,1
283,-122.78493577095075,47.06031019348296,6284,53R0607A,R0607A,1,206MP 111.01 W/O SR 510 I/C - LACEY,3, ,-122.784936,47.06031,WA,0,1999, ,53,67,1
284,-122.39940177059157,45.19238119174344,6285,41003014,003014,0,3.0 mi. N of Colton,3, ,-122.399402,45.192382,OR,2409,1999,6,41,5,1
285,-119.08928976750894,46.34816219281981,6286,53R0611A,R0611A,2,206MP 036.24 N/O E ELM RD,3, ,-119.08929,46.348162,WA,11953,2000,2,53,21,1
286,-122.7430647709118,45.371829191910464,6287,41003016,003016,1,At SW 65th Ave. U-Xing & Clack.-Wash. county line,3, ,-122.743065,45.371829,OR,82682,1999,11,41,5,1
287,-119.20723676761872,46.23166319271133,6288,53R0628A,R0628A,0,206MP 037.53 NW/O OLD SR 12 I/C - RICHLAND,3, ,-119.207237,46.231663,WA,0,2000, ,53,5,1
288,-123.91121377199968,46.02771019252134,6289,41004001,004001,3,2.0 mi. W of Gearhart,3, ,-123.911214,46.027711,OR,13809,1999,2,41,7,1
289,-117.56745276609144,47.99472319435307,6290,53R063AA,R063AA,2,206MP 190.29 S/O SR 292 - LOON LAKE,3, ,-117.567453,47.994723,WA,8568,2000,2,53,65,1
290,-123.67954977178395,46.06363119255485,6291,41004010,004010,0,5.0 mi. SE of Olney,3,Not on NHPN,-123.67955,46.063632,OR,0,1999, ,41,0,1
291,-117.98725076648248,47.65794319403961,6292,53R0647A,R0647A,7,206MP 250.50 W/O HARMES RD - DAVENPORT,3, ,-117.987251,47.657944,WA,2810,2000,2,53,43,1
292,-123.0341147711828,46.096916192585695,6293,41005006,005006,3,5.0 mi. W of Rainier,3, ,-123.034115,46.096916,OR,10216,1999,2,41,9,1
293,-117.36035776589868,47.25454019366394,6294,53R0655A,R0655A,7,206MP 065.73 S/O COUNTY ROAD - ROSALIA,3, ,-117.360357,47.254541,WA,0,1999, ,53,75,1
294,-122.67642977084962,45.48803919201866,6295,41026016,026016,1,1.0 mi. S of ORE 43 Jct. in Portland,2, ,-122.67643,45.488039,OR,143423,1999,11,41,51,1
295,-119.12342276754066,46.81065419325056,6296,53R0667A,R0667A,7,206MP 043.06 ON SR 26 E/O SR 17,3, ,-119.123423,46.810654,WA,0,2000, ,53,1,1
296,-122.67745377085066,45.566763192091976,6297,41026019,026019,1,1.6 mi. W of I-405 Jct. in Portland,1,Poor Location Description,-122.677453,45.566763,OR,136431,1999,11,41,51,1
297,-117.77272176628276,46.49987419296093,6298,53R0677A,R0677A,7,206MP 390.66 AT PATAHA CREEK BRIDGE,3, ,-117.772722,46.499874,WA,2226,2000,2,53,23,1
298,-122.54273577072507,45.58429319210836,6299,41026024,026024,1,"On Glenn Jackson Bridge, Oregon-Wash. state line",2,Poor Location Description,-122.542736,45.584293,OR,131954,1999,11,41,51,1
299,-119.49883376789032,48.620107194935656,6300,53R0681A,R0681A,7,206MP 293.33 N/O COPPLE ROAD - OMAK,3, ,-119.498834,48.620107,WA,5049,1999,2,53,47,1
300,-122.67191977084552,45.50601619203531,6301,41026026,026026,1,0.1 mi. N of S Jct. I-5 and I-405 in Portland,3, ,-122.67192,45.506016,OR,134039,1999,11,41,51,1
301,-122.26604277046748,47.447874193843965,6302,5300D2AA,00D2AA,1,218MP 153.48 I-5/S OF I-405/SR 518 I/C,3, ,-122.266043,47.447874,WA,0,2000, ,53,33,1
302,-122.68153877085432,45.53799419206512,6303,41026027,026027,1,On Fremont Bridge at US 30 Jct. in Portland,3, ,-122.681538,45.537994,OR,111825,1999,11,41,51,1
303,-123.56978477168173,46.98241619341053,6304,53B020AA,B020AA,3,218MP 012.30 W/O MONTE BRADY LOOP RD WYE CONN,3, ,-123.569785,46.982416,WA,20921,2000,2,53,27,1
304,-120.73165476903834,45.48313219201412,6305,41028001,028001,7,0.6 mi. N of Moro,2,Unexact location reference,-120.731655,45.483133,OR,2580,1999,2,41,55,1
305,-119.12554776754268,46.24630819272494,6306,53B030AA,B030AA,2,218MP 027.20 S/O VINEYARD DR - PASCO,3, ,-119.125548,46.246309,WA,13514,2000,2,53,21,1
306,-123.9444417720306,45.5821361921063,6307,41029001,029001,3,2.2 mi. S of Rockaway Beach,3, ,-123.944442,45.582136,OR,6481,1999,2,41,57,1
307,-120.92931076922255,47.190083193603854,6308,53B040AA,B040AA,1,218MP 082.70 W/O CLE ELUM OFF RAMP,3, ,-120.929311,47.190084,WA,28007,2000,1,53,37,1
308,-119.13286876754952,45.9158341924172,6309,41030002,030002,0,0.2 mi. E of ORE 37 SW of Oregon-Wash. state line,3, ,-119.132869,45.915834,OR,2464,1999,2,41,59,1
309,-122.23995577044316,47.63761319402057,6310,53D100AA,D100AA,7,218MP 004.00 W/O 76TH AVE NE UXING,3, ,-122.239956,47.637614,WA,243699,2000,12,53,33,1
310,-118.91994776735125,45.68853119220528,6311,41030004,030004,1,4.0 mi. W of Pendleton,3, ,-118.919947,45.688532,OR,14931,1999,1,41,59,1
311,-122.47783777066472,47.23496219364562,6312,53D110AA,D110AA,4,218MP 001.10 E/O UNION AVE OXING - FIRCREST,3, ,-122.477838,47.234963,WA,96512,2000,12,53,53,1
312,-118.84404276728058,45.47471719200621,6313,41030007,030007,2,0.7 mi. W of Pilot Rock,3, ,-118.844042,45.474717,OR,901,1999,2,41,59,1
313,-122.11000477032212,47.36381119376557,6314,53D120AA,D120AA,7,218MP 012.55 AT 180TH AVE SE UXING - KENT,3, ,-122.110005,47.363811,WA,0,2000, ,53,33,1
314,-118.40904376687536,45.82200019232966,6315,41030012,030012,0,1.6 mi. SE of ORE 11 Jct. near Weston,3, ,-118.409044,45.822,OR,1210,1999,6,41,59,1
315,-122.32287777052032,47.46999419386463,6316,53D130AA,D130AA,7,218MP 000.35 E/O SR 509 I/C - BURIEN,3, ,-122.322878,47.469994,WA,59857,2000,12,53,33,1
316,-118.38632676685415,45.9878561924841,6317,41030021,030021,7,0.9 mi. S of Oregon-Wash. state line,3, ,-118.386327,45.987856,OR,13611,1999,2,41,59,1
317,-122.31930377051702,47.44186819383821,6318,53D140AA,D140AA,7,218MP 026.37 N/O SR 518 I/C,3, ,-122.319304,47.441868,WA,57622,2000,12,53,33,1
318,-119.32351976772702,45.92357919242436,6319,41030025,030025,1,0.6 mi. S of Oregon-Wash. state line,3, ,-119.32352,45.923579,OR,16313,1999,1,41,59,1
319,-122.4477577706366,47.1584091935743,6320,53D300AA,D300AA,7,218MP 001.53 W/O SR 7 I/C PARKLAND,3, ,-122.447758,47.15841,WA,91301,2000,12,53,53,1
320,-117.90912276640984,45.56709219209239,6321,41031005,031005,0,0.1 mi. E of Elgin,3, ,-117.909123,45.567092,OR,1974,1999,6,41,61,1
321,-120.43511176876216,47.50970619390142,6322,53P010AA,P010AA,7,218MP 113.10 W/O RED APPLE RD - CASHMERE,3, ,-120.435112,47.509706,WA,20915,2000,2,53,7,1
322,-121.26649376953648,45.67320519219117,6323,41033001,033001,1,6.0 mi. W of The Dalles,3, ,-121.266494,45.673205,OR,20973,1999,1,41,65,1
323,-120.03028276838508,46.30728219278176,6324,53P030AA,P030AA,1,MP 066.30 S/O PROGRESSIVEROAD WYE CONN - WAPATO,3, ,-120.030283,46.307282,WA,11913,1999,6,53,77,1
324,-121.10785276938869,45.48680119201752,6325,41033005,033005,0,2.6 mi. N of Dufur,3, ,-121.107853,45.486801,OR,2403,1999,6,41,65,1
325,-122.55703677073842,48.82820719512932,6326,53P040AA,P040AA,1,MP 261.33 FERNDALECAMAS,3, ,-122.557037,48.828207,WA,0,1999, ,53,73,1
326,-123.25490877138851,45.73349819224721,6327,41034001,034001,7,4.6 mi. W of ORE 47 Jct. near Buxton,3, ,-123.254909,45.733498,OR,6965,1999,2,41,67,1
327,-117.95996976645706,46.486730192948805,6328,53P050AA,P050AA,7,218MP 376.98 W/O TUCANNON RIVER BR - DAYTON,3, ,-117.95997,46.48673,WA,2119,2000,2,53,13,1
328,-123.29650077142712,45.653790192173176,6329,41034004,034004,0,1.0 mi. W of Glennwood,3, ,-123.296501,45.65379,OR,4699,1999,6,41,67,1
329,-122.43858177062816,45.57944919210388,6330,53P060AA,P060AA,7,218MP 011.90 E/O ALPINE RD - CAMAS,3, ,-122.438582,45.579449,WA,37022,2000,12,53,11,1
330,-122.93180977108744,45.31092719185374,6331,41036004,036004,7,0.3 mi. E of Newberg,2,Unexact reference point,-122.931809,45.310927,OR,34126,1999,14,41,71,1
331,-122.32271577052028,45.5727931920976,6332,53P070AA,P070AA,7,218MP 017.70 E/O 32ND ST - WASHOUGAL,3, ,-122.322716,45.572793,WA,0,2000, ,53,11,1
332,-122.7776487709438,45.22873819177728,6333,41024016,024016,0,Wilsonville-Hubbard Hwy 0.12 mile south of Ehlen R,3, ,-122.777648,45.228738,OR,8074,0,6,41,47,1
333,-120.3422797686758,46.43511119290076,6334,53P080AA,P080AA,1,218MP 048.50 W/O SR 22 - ZILLAH,3, ,-120.34228,46.435111,WA,23885,2000,1,53,77,1
334,-119.22349176763387,46.04355119253604,6335,53P090AA,P090AA,1,218MP 121.20 W/O COFFIN RD - PLYMOUTH,3, ,-119.223492,46.043551,WA,15554,2000,1,53,5,1
335,-118.399035766866,47.11141119353061,6336,53P100AA,P100AA,1,218MP 218.83 W/O SR 395 I/C - RITZVILLE,3, ,-118.399036,47.111411,WA,190798,2000,11,53,1,1
336,-119.68463476806346,48.104076194455104,6337,53P110AA,P110AA,7,218MP 250.35 N/O COUNTY ROAD NO 1525 - PATEROS,3, ,-119.684635,48.104077,WA,4023,2000,2,53,47,1
337,-117.09162576564836,46.54549119300356,6338,53P130AA,P130AA,7,218MP 006.01 S/O BAUER RD 9440 - COLTON,3, ,-117.091625,46.545491,WA,4821,2000,2,53,75,1
338,-117.22303476577076,46.73133719317666,6339,53P140AA,P140AA,7,218MP 022.20 S/O SR 270 - PULLMAN,3, ,-117.223035,46.731337,WA,3134,2000,2,53,75,1
339,-117.40194176593737,47.57903319396622,6340,53P150AA,P150AA,7,218MP 087.70 N/O WASHINGTON RD - SPOKANE,3, ,-117.401941,47.579033,WA,8831,2000,2,53,63,1
340,-119.60073876798504,46.12802719261463,6341,53P170AA,P170AA,0,218MP 013.10 S/O SELLARDS RD - PROSSER,3, ,-119.600739,46.128028,WA,1990,2000,6,53,5,1
341,-123.08777277123268,47.47589419387016,6342,53P180AA,P180AA,7,218MP 324.80 S/O EAGLE CREEK BRIDGE,3, ,-123.087773,47.475894,WA,2688,2000,2,53,45,1
342,-122.15373877036284,47.77403419414759,6343,53P190AA,P190AA,7,218MP 013.30 W/O SR 9 I/C - WOODINVILLE,3, ,-122.153739,47.774034,WA,41898,2000,12,53,33,1
343,-122.21162777041673,47.30361919370949,6344,53P200AA,P200AA,7,218MP 005.26 E/O SR 164 I/C - AUBURN,3, ,-122.211628,47.303619,WA,52901,2000,12,53,33,1
344,-122.12748677033844,48.18870719453394,6345,53P210AA,P210AA,0,218MP 028.75 N/O HIGHLAND DRIVE - ARLINGTON,3, ,-122.127487,48.188707,WA,0,2000, ,53,61,1
345,-119.46049176785456,48.999717195289215,6346,53P220AA,P220AA,7,218MP 335.30 S/O OLD HIGHWAY ROAD - OROVILLE,2,Mileage ends at 321.62,-119.460491,48.999717,WA,2084,2000,2,53,47,1
346,-119.52834976791765,48.52539219484736,6347,53P230AA,P230AA,7,218MP 286.16 S/O SR 20 - OKANOGAN,3, ,-119.52835,48.525392,WA,3972,2000,2,53,47,1
347,-117.04955276560916,47.695620194074536,6348,53P240AA,P240AA,1,218MP 298.40 W/O IDAHO ROAD I/C,3, ,-117.049553,47.69562,WA,0,2000, ,53,63,1
348,-118.71979576716464,47.75786619413264,6349,53P250AA,P250AA,0,218MP 091.55 N/O PRINCE STREET - WILBUR,3, ,-118.719796,47.757866,WA,0,2000, ,53,43,1
349,-71.70276072337674,42.52094118925549,5001,25000034,000034,7,0.5 MILES WEST OF RTE. 70,3, ,-71.702761,42.520941,MA,0,1999, ,25,27,1
350,-70.87376072260452,42.57469518930544,5002,25000035,000035,7,104      0.3 MILES EAST OF BRIMBLE AVE.,3, ,-70.873761,42.574695,MA,0,1999, ,25,9,1
351,-70.99980372272216,42.21838618897357,5003,25000036,000036,7,104      SOUTH OF RIVER ST.,3, ,-70.999803,42.218387,MA,0,1999, ,25,21,1
352,-71.1357917228487,42.20477518896098,5004,25000077,000077,1,104      NORTH OF RTE. 128,2,Seems to be More Eastward; Also there is S138 & S28 near here,-71.135792,42.204775,MA,0,1999, ,25,21,1
353,-71.05007772276895,42.27618018902752,5005,25000078,000078,1,104      OVER GRANITE AVE.,3, ,-71.050078,42.27618,MA,0,1999, ,25,21,1
354,-71.05168372277035,42.303322189052665,5006,25000079,000079,1,104      NORTH OF MORRISSEY BLVD.,3, ,-71.051684,42.303322,MA,0,1999, ,25,25,1
355,-71.03466272275455,42.403296189145806,5007,25000080,000080,7,104      0.3 MILES NORTH OF SARGENT ST.,3, ,-71.034663,42.403296,MA,0,1999, ,25,25,1
356,-71.06278572278069,42.331620189079096,5008,25000081,000081,1,204      NORTH OF SOUTHAMPTON ST.,3, ,-71.062786,42.33162,MA,0,1999, ,25,25,1
357,-71.10539372282045,42.44692518918646,5009,25000082,000082,1,104      AT THE STONEHAM T.L.,2,Uncertain which side of T.L./C.L. Station is Located,-71.105394,42.446925,MA,0,1999, ,25,17,1
358,-72.98654672457246,42.54705718927976,5010,25000125,000125,0,104      0.5 MILES WEST OF THE PLAINFIELD T.L.,3,Not on NHPN,-72.986546,42.547057,MA,0,1999, ,25,0,1
359,-72.86509772445923,42.25788618901042,5011,25000130,000130,0,104      1.5 MILES SOUTH OF JCT. OF RTES. 66 &,3, ,-72.865098,42.257886,MA,0,1999, ,25,15,1
360,-74.75278572621731,39.97450718688378,5012,34007127,007127,0,BET US206 & CO684,2,Unable to locate CO 684,-74.752786,39.974507,NJ,0,2000, ,34,5,1
361,-74.57475772605153,39.88815518680321,5013,34007129,007129,7,BET FOUR MILE RD & PAKIN POND RD,2,Unable to locate Pakin Pond Rd,-74.574757,39.888155,NJ,0,2000, ,34,5,1
362,-73.14111772471635,42.59657418932584,5014,25000162,000162,7,104      AT ADAMS T.L.,2,Uncertain which side of T.L./C.L. Station is Located,-73.141118,42.596575,MA,0,1999, ,25,3,1
363,-75.05839772650182,39.78838118671057,5015,34007130,007130,0,BET MAIN ST & WOODLAND AVE,3,S168 is not labelled on NHPN,-75.058398,39.788381,NJ,11548,2000,14,34,7,1
364,-73.31548672487861,42.35173218909772,5016,25000189,000189,0,104      SOUTH OF THE LENOX T.L.,3,Not on NHPN,-73.315487,42.351732,MA,0,1999, ,25,0,1
365,-74.74358272620879,39.93506118684695,5017,34007132,007132,7,BET CO642 & CO616,3, ,-74.743583,39.935061,NJ,0,2000, ,34,5,1
366,-73.37618472493523,42.257008189009404,5018,25000190,000190,0,104      AT THE GREAT BARRINGTON T.L.,2,Uncertain which side of T.L./C.L. Station is Located,-73.376184,42.257008,MA,0,1999, ,25,0,1
367,-72.60762272421942,42.50437218923974,5019,25000211,000211,0,104      2.5 MILES NORTH OF THE WHATELY T.L.,3,Not on NHPN,-72.607623,42.504372,MA,0,1999, ,25,0,1
368,-74.9794477264283,39.920898186833966,5020,34007134,007134,1,AT CHAPEL AVE OVERPASS,3, ,-74.979448,39.920898,NJ,112580,2000,11,34,7,1
369,-75.42770372684588,39.531867186471686,5021,34007135,007135,0,BET OLD WILEY RD & CO618,1,Unable to locate Roads in Description,-75.427703,39.531867,NJ,1470,2000,16,34,0,1
370,-72.63351172424353,42.163574188922496,5022,25000280,000280,0,104      AT THE HOLYOKE C.L.,2,Uncertain which side of T.L./C.L. Station is Located,-72.633512,42.163574,MA,0,1999, ,25,13,1
371,-75.34931772677277,39.77074218669407,5023,34007136,007136,1,BET US322 & CO620,3, ,-75.349318,39.770742,NJ,0,2000, ,34,15,1
372,-71.82192672348759,42.22530318897992,5024,25000303,000303,0,0.2 MILES SOUTH OF THE WORCESTER C.L.,2,Not on NHPN,-71.821927,42.225304,MA,0,1999, ,25,0,1
373,-75.46831872688381,39.6942811866229,5025,34007137,007137,1,AT HOLLYWOOD AVE OVERPASS,3, ,-75.468319,39.694281,NJ,0,2000, ,34,33,1
374,-71.62028772329995,42.28444718903511,5026,25000307,000307,7,104      EAST OF THE NORTHBOROUGH T.L.,3, ,-71.620287,42.284448,MA,0,1999, ,25,27,1
375,-75.48764172690174,39.679034186608575,5027,34007138,007138,0,0.3 MI NORTH OF STARTING POINT,3, ,-75.487642,39.679035,NJ,0,2000, ,34,33,1
376,-71.70608472337989,42.11732118887949,5028,25000310,000310,7,104      0.7 MILES SOUTH OF PURGATORY RD.,3, ,-71.706085,42.117322,MA,0,1999, ,25,27,1
377,-71.80463872347167,42.32776918907558,5029,25000316,000316,1,104      AT MOUNTAIN ST. WEST,3, ,-71.804639,42.327769,MA,0,1999, ,25,27,1
378,-75.46684572688235,39.72247918664909,5030,34007139,007139,0,BET PARK AVE & WILLIS AVE,3, ,-75.466845,39.722479,NJ,0,2000, ,34,33,1
379,-72.08788172373528,42.59757718932672,5031,25000321,000321,0,104      2.5 MILES NORTH OF THE TEMPLETON T.L.,2,Uncertain which side of T.L./C.L. Station is Located,-72.087882,42.597578,MA,0,1999, ,25,0,1
380,-75.00223172644945,39.698127186626365,5032,34007142,007142,0,BET SAYBROOK AVE & LINDALE AVE,3, ,-75.002232,39.698127,NJ,29615,2000,14,34,15,1
381,-71.57611072325881,42.33434518908142,5033,25000390,000390,1,104      0.5 MILES SOUTH OF RTE. 20,3, ,-71.576111,42.334345,MA,0,1999, ,25,17,1
382,-74.54451272602341,39.395188186344285,5034,34008102,008102,7,"BLACKHORSE PIKE,BET DELANCY AVE & NOAH'S RD",3, ,-74.544513,39.395188,NJ,28151,2000,14,34,1,1
383,-71.10106272281632,42.4953531892316,5035,25000407,000407,7,104      0.5 MILES SOUTH OF THE READING T.L.,3, ,-71.101062,42.495353,MA,0,1999, ,25,17,1
384,-74.48702372596973,39.389948186339375,5036,34008110,008110,7,"ABSECON BOULEVARD,ABT 0.5 MI E OF DELILAH RD,CO646",3, ,-74.487024,39.389949,NJ,56341,2000,14,34,1,1
385,-71.35947172305708,42.26715218901917,5037,25000411,000411,0,104      AT THE NATICK T.L.,2,Uncertain which side of T.L./C.L. Station is Located,-71.359471,42.267152,MA,0,1999, ,25,17,1
386,-74.81154272627208,39.09176518606159,5038,34008115,008115,7,"GARDEN STATE PKWY,BET STONEHARBOR BLVD & CRESTHAVE",3, ,-74.811543,39.091765,NJ,0,2000, ,34,9,1
387,-71.35955972305709,42.601445189330256,5039,25000414,000414,1,104      0.3 MILES SOUTH OF RTE. 4,3, ,-71.359559,42.601445,MA,0,1999, ,25,17,1
388,-74.57931672605577,39.431705186378224,5040,34008116,008116,8,"TILTON RD,NORTH OF DELILAH RD CIRCLE",3, ,-74.579316,39.431706,NJ,0,2000, ,34,1,1
389,-71.02321672274388,42.815760189529726,5041,25000500,000500,1,104      AT THE MERRIMAC T.L.,2,Uncertain which side of T.L./C.L. Station is Located,-71.023217,42.81576,MA,0,1999, ,25,9,1
390,-75.01023972645703,39.51008618645125,5042,34008117,008117,0,"WHEAT RD, BET EAST AVE & VALLEY RD",3,Not on NHPN,-75.01024,39.510086,NJ,7154,2000,17,34,0,1
391,-74.75432272621873,39.291006186247216,5043,34008118,008118,0,OPPOSITE TUCHAHOE FIRE STATION,3, ,-74.754322,39.291006,NJ,8901,2000,6,34,9,1
392,-71.13314572284611,42.67873518940229,5044,25000502,000502,7,104      NORTH OF THE ANDOVER BY-PASS,2,Uncertain where the Bypass is Located,-71.133146,42.678735,MA,0,1999, ,25,9,1
393,-74.80145472626253,39.00167618597772,5045,34008119,008119,0,"NEW JERSEY AVE,BET 9TH AVE & 10TH AVE",3,Not on NHPN,-74.801455,39.001676,NJ,0,2000, ,34,0,1
394,-71.20031172290874,42.67616818940007,5046,25000511,000511,1,104      0.9 MILES NORTH OF RTE. I-495,3, ,-71.200311,42.676168,MA,0,1999, ,25,9,1
395,-75.06292572650612,39.538505186477884,5047,34008120,008120,7,"2.8 MI SOUTH OF US 40, SHRP SITE",3, ,-75.062925,39.538506,NJ,0,2000, ,34,11,1
396,-71.00000972272233,42.518630189253145,5048,25000550,000550,7,104      AT THE PEABODY C.L.,2,Uncertain which side of T.L./C.L. Station is Located,-71.00001,42.51863,MA,0,1999, ,25,9,1
397,-74.58013872605646,39.481358186424536,5049,34008121,008121,7,BET MANHEIM AVE & ODESSA AVE,3, ,-74.580139,39.481358,NJ,0,2000, ,34,1,1
398,-70.98019872270379,42.521833189256135,5050,25000595,000595,1,104      1.0 MILES NORTH OF THE PEABODY C.L.,3, ,-70.980199,42.521833,MA,0,1999, ,25,9,1
399,-74.59419772606952,39.302448186257934,5051,34008122,008122,7,0.5 MI SOUTH OF CIRCLE,3, ,-74.594198,39.302449,NJ,0,2000, ,34,9,1
400,-71.00258272272453,41.65522118844921,5052,25000601,000601,1,104      WEST OF HIXVILLE RD.,3, ,-71.002582,41.655221,MA,15675,1999,11,25,5,1
401,-74.64390172611587,39.449995186395135,5053,34008123,008123,7,JUST WEST OF DIVIDED ROADWAY,2,Uncertain of location of Divided Roadway,-74.643902,39.449995,NJ,0,2000, ,34,1,1
402,-71.0789347227958,42.19812018895464,5054,25000614,000614,7,104      ON NORTHBOUND & SOUTHBOUND RAMPS OF RT,2,RT Number Unknown,-71.078935,42.19812,MA,0,1999, ,25,21,1
403,-74.81148572627194,39.55347618649182,5055,34008124,008124,0,BET SPIREWOOD DR & 5TH ST,2,Unable to locate Spirewood DR,-74.811486,39.553476,NJ,14620,2000,6,34,1,1
404,-73.19986172477091,42.49649218923276,5056,25000001,000001,7,104      0.5 MILES SOUTH OF THE LANESBOROUGH T.,3, ,-73.199862,42.496492,MA,0,1999, ,25,3,1
405,-74.64390972611591,39.44999418639542,5057,34008126,008126,7,JUST WEST OF DIVIDED ROADWAY,2,Uncertain of location of Divided Roadway,-74.64391,39.449994,NJ,30831,2000,14,34,1,1
406,-73.22254872479219,42.29874718904836,5058,25000002,000002,0,104      1 MILE EAST OF JCTS. OF RTES. 20 & 102,3, ,-73.222549,42.298747,MA,0,1999, ,25,3,1
407,-74.59204572606768,39.33236018628576,5059,34008127,008127,0,BET OCEAN HEIGHTS AVE & FRANCES AVE,3, ,-74.592046,39.33236,NJ,16536,2000,14,34,1,1
408,-71.2300147229364,41.85981218863964,5060,25000003,000003,7,104      0.6 MILES EAST OF RTE. 118,3, ,-71.230015,41.859812,MA,0,1999, ,25,5,1
409,-74.96698872641673,39.271354186229125,5061,34008128,008128,7,BET LEESBURG RD & NEW STAGE RD,3, ,-74.966989,39.271354,NJ,0,2000, ,34,11,1
410,-72.22742872386533,42.56407618929563,5062,25000004,000004,7,104      2.5 MILES EAST OF ORANGE T.L.,3, ,-72.227429,42.564077,MA,0,1999, ,25,27,1
411,-74.43180172591836,39.592521186528174,5063,34008129,008129,0,BET GREEN BUSH RD & JOBS CREEK,3, ,-74.431801,39.592521,NJ,10633,2000,6,34,5,1
412,-71.83151272349664,42.20779018896371,5064,25000005,000005,0,104      1 MILE NORTH OF RTE. I-90,3,Not on NHPN,-71.831513,42.20779,MA,0,1999, ,25,0,1
413,-74.93207572638414,39.363833186315205,5065,34008130,008130,0,BET HESSTOWN-BEAVER DAM RD & PORT RD,1,Unable to Locate Beaver Dam Rd nor Port Rd,-74.932076,39.363833,NJ,7241,2000,6,34,11,1
414,-72.6223517242331,42.50942918924465,5066,25000006,000006,1,104      1.8 MILES NORTH OF RTE. 116,3, ,-72.622352,42.50943,MA,0,1999, ,25,11,1
415,-74.03014672554423,40.866735187714816,5067,3402110E,02110E,1,"PASSAIC EXPRESSWAY,UNDER 2ND ST OVERPASS, INT 67",3, ,-74.030147,40.866735,NJ,0,2000, ,34,3,1
416,-70.83721372257048,41.66669818845986,5068,25000007,000007,1,104      WEST OF NORTH ST.,3, ,-70.837213,41.666698,MA,0,1999, ,25,23,1
417,-74.03014672554423,40.866735187714816,5069,3402110L,02110L,1,"PASSAIC EXPRESSWAY,UNDER 2ND ST OVERPASS, INT 67",3, ,-74.030147,40.866735,NJ,0,2000, ,34,3,1
418,-72.63755072424733,42.35979018910541,5070,25000011,000011,1,104      05. MILES SOUTH OF THE HATFIELD T.L.,2,Poor Location Description,-72.63755,42.359791,MA,0,1999, ,25,15,1
419,-75.45428072687055,39.812314186732735,5071,10008039,008039,1,SOUTH OF DEL. 92,3,It is south of Jct of I-95,-75.454281,39.812314,DE,0,1999, ,10,3,1
420,-71.03575372275553,42.80988918952449,5072,25000012,000012,0,104      1 MILE WEST OF THE MERRIMAC T.L.,3,Not on NHPN,-71.035754,42.80989,MA,0,1999, ,25,0,1
421,-75.57053572697892,39.21023318617204,5073,10008040,008040,0,NORTH OF DOVER,3, ,-75.570536,39.210233,DE,0,1999, ,10,1,1
422,-71.10780072282267,42.241123188994834,5074,25000013,000013,7,104      300 FT. NORTH OF ATHERTON ST.,3, ,-71.1078,42.241124,MA,0,1999, ,25,21,1
423,-75.53330372694425,39.20160218616383,5075,10008041,008041,0,KC 88 N OF KC 337 BEHIND DOVER DOWNS,3,Not on NHPN,-75.533304,39.201602,DE,0,1999, ,10,0,1
424,-71.30054272300197,41.96180318873468,5076,25000650,000650,1,104      0.5 MILES NORTH OF RTE. I-295,3, ,-71.300543,41.961803,MA,0,1999, ,25,5,1
425,-75.62102972702587,39.15552018612112,5077,10008043,008043,7,DE 8 WEST OF DOVER,3, ,-75.62103,39.15552,DE,0,1999, ,10,1,1
426,-71.05234272277107,42.20794518896378,5078,25000691,000691,1,104      0.7 MILES EAST OF RTE. 28,3, ,-71.052342,42.207945,MA,0,1999, ,25,21,1
427,-75.52189872693361,39.2697241862275,5079,10008044,008044,0,KC RD 12 @ DE 9,3, ,-75.521899,39.269724,DE,0,1999, ,10,0,1
428,-71.19013172289937,42.21399018896954,5080,25000695,000695,0,AT THE NORWOOD T.L.,2,Not on NHPN; Uncertain which side of T.L.,-71.190131,42.21399,MA,0,1999, ,25,0,1
429,-75.52189872693361,39.269722186227504,5081,10008045,008045,0,DE 9 @ KC RD 12,3,Not on NHPN,-75.521899,39.269722,DE,0,1999, ,10,0,1
430,-70.97645172270035,42.08920518885316,5082,25000703,000703,7,104      AT THE BROCKTON C.L.,2,Uncertain which side of T.L./C.L. Station is Located,-70.976452,42.089205,MA,13585,1999,11,25,23,1
431,-75.58860972699561,39.30624518626144,5083,10008046,008046,3,DE 1 @ DE 6,3, ,-75.58861,39.306246,DE,0,1999, ,10,1,1
432,-70.59162072234193,41.74988518853733,5084,25000707,000707,4,NORTH OF THE BOURNE BRIDGE,3, ,-70.591621,41.749886,MA,0,1999, ,25,1,1
433,-75.56170672697067,39.235147186195256,5085,10008047,008047,3,DE 1 @ DE 42,3, ,-75.561707,39.235147,DE,0,1999, ,10,1,1
434,-70.54390472229737,41.774049188559786,5086,25000708,000708,7,EAST OF THE SAGAMORE BRIDGE,3, ,-70.543905,41.774049,MA,0,1999, ,25,1,1
435,-75.5143607269265,39.11799418608591,5087,10008050,008050,0,DE RT 10 EAST OF US 113A,3, ,-75.51436,39.117994,DE,0,1999, ,10,1,1
436,-70.44953272220948,41.63802718843294,5088,25000712,000712,7,104      0.2 MILES EAST OF RTE. 130,3, ,-70.449533,41.638027,MA,0,1999, ,25,1,1
437,-75.56454772697337,38.95306718593251,5089,10008060,008060,3,RD=0240 MP= 8.28,2,LRS Mileage Discrepancy; measured from county line northward,-75.564548,38.953068,DE,0,1999, ,10,1,1
438,-71.01921372274023,41.94211318871646,5090,25000725,000725,1,104      0.25 MILES SOUTH OF RTE. 24,3, ,-71.019213,41.942113,MA,0,1999, ,25,5,1
439,-75.5107237269233,39.15710718612239,5091,10008061,008061,0,AT COURT ST. DOVER,3, ,-75.510724,39.157108,DE,0,1999, ,10,1,1
440,-71.15882672287006,42.403516189145925,5092,25000822,000822,7,104      AT THE BELMONT T.L.,3, ,-71.158827,42.403516,MA,0,1999, ,25,17,1
441,-75.42998372684792,38.934230185914885,5093,10008062,008062,7,NORTH OF MILFORD,3, ,-75.429983,38.93423,DE,0,1999, ,10,1,1
442,-71.11892272283308,42.421708189162864,5094,25000825,000825,0,104      EAST OF THE MEDFORD C.L.,1,Unable to Locate Where S38 crosses the C. L.,-71.118923,42.421708,MA,0,1999, ,25,17,1
443,-74.39697872588584,40.50542518737824,5095,34004113,004113,7,"HERBERT HIGHWAY,BET FULTON ST & WILSON AVE",3, ,-74.396978,40.505425,NJ,0,2000, ,34,23,1
444,-72.60650072421845,41.92408318869956,5096,09009011,009011,7,0.5 MILES SOUTH OF ROUTE 140,3, ,-72.606501,41.924084,CT,8368,1999,14,9,3,1
445,-68.36625472026935,44.42612119102955,5097,23040601,040601,0,NORTH OF STATE ROUTE 102,3, ,-68.366255,44.426121,ME,0,1999, ,23,9,1
446,-87.41074273800585,45.705196192221024,5098,26001430,001430,7,0.2 MILES EAST OF COUNTY ROAD 557,3, ,-87.410742,45.705196,MI,0,1999, ,26,109,1
447,-71.87855572354056,41.83997218862128,5099,09009012,009012,1,0.2 MILES SOUTH OF EXIT 93,3, ,-71.878556,41.839973,CT,0,1999, ,9,15,1
448,-68.35920872026276,44.420087191024095,5100,23040603,040603,0,STATE ROUTE 3 EAST OF STATE ROUTE 102,3, ,-68.359209,44.420087,ME,0,1999, ,23,9,1
449,-74.43649972592266,40.46800118734337,5101,34004114,004114,7,JUST SOUTH OF COLLEGE FARM RD,3, ,-74.4365,40.468002,NJ,51401,2000,14,34,23,1
450,-71.03257472275249,42.37325718911779,5102,25000945,000945,7,104      BTWN. RAMPS TO LOGAN AIRPORT,3, ,-71.032575,42.373257,MA,0,1999, ,25,25,1
451,-75.4277667268459,38.94031418592072,5103,10008063,008063,7,DE 1 @ US 113 MILFORD,3, ,-75.427766,38.940314,DE,0,1999, ,10,1,1
452,-87.41074273800585,45.705196192221024,5104,26001440,001440,7,0.2 MILES EAST OF COUNTY ROAD 557,3, ,-87.410742,45.705196,MI,0,1999, ,26,109,1
453,-68.36023572026374,44.41703819102122,5105,23040605,040605,0,SOUTH OF STATE ROUTE 3,3, ,-68.360236,44.417039,ME,0,1999, ,23,9,1
454,-71.88155572354316,41.856905188636745,5106,09009013,009013,0,1.1 MILES NORTH OF ROUTE 101,3, ,-71.881556,41.856905,CT,4588,1999,16,9,15,1
455,-74.65599772612717,40.4214691873002,5107,34004115,004115,7,BET ORCHARD RD & OPPOSSUM RD,3, ,-74.655997,40.421469,NJ,0,2000, ,34,35,1
456,-71.16700672287783,42.49780918923374,5108,25000014,000014,1,104      0.5 MILES SOUTH OF RTE. 38,3, ,-71.167007,42.49781,MA,0,1999, ,25,17,1
457,-75.47147872688673,38.87886818586344,5109,10008070,008070,0,DE 36 BETWEEN SUSSEX 207 AND SUSSEX 620,3,Not on NHPN,-75.471478,38.878868,DE,0,1999, ,10,0,1
458,-70.44703272220727,44.12116219074584,5110,23041204,041204,7,SOUTH EAST OF STATE ROUTE 121,3, ,-70.447033,44.121162,ME,0,1999, ,23,17,1
459,-72.684595724291,41.63452718842985,5111,09009014,009014,1,0.2 MILES NORTH OF ROCKY HILL TOWN LINE,2,Uncertain which side of Town Line Station is Located,-72.684596,41.634528,CT,0,1999, ,9,3,1
460,-74.51420072599505,40.29941818718635,5112,34004116,004116,0,BET RT539 & CRANBURY STATION RD,3, ,-74.5142,40.299419,NJ,0,2000, ,34,23,1
461,-103.64078275312136,48.16244419450946,5113,38000603,000603,7,US2 IN WILLISTON,2,Poor Location Description,-103.640783,48.162445,ND,4359,1999,14,38,105,1
462,-70.49180972224895,44.134609190758,5114,23041206,041206,0,SOUTH WEST OF STATE ROUTE 26,3, ,-70.49181,44.13461,ME,0,1999, ,23,17,1
463,-73.31755772488049,41.17661818800354,5115,09009015,009015,7,0.4 MILES NORTH OF FAIRFIELD TOWN LINE,2,Uncertain which side of Town Line Station is Located,-73.317558,41.176618,CT,74785,1999,12,9,1,1
464,-74.55317572603144,40.40172718728176,5116,34004117,004117,7,BET NEW RD & MAJOR-SANDHILL RDS,3, ,-74.553176,40.401727,NJ,53484,2000,14,34,23,1
465,-87.41074273800585,45.705196192221024,5117,26001449,001449,7,0.2 MILES EAST OF COUNTY ROAD 557,3, ,-87.410742,45.705196,MI,0,1999, ,26,109,1
466,-95.7883997458082,46.26704319274416,5118,27000225,000225,0,2 MI W OF CSAH47 W OF BATTLE LAKE,3, ,-95.7884,46.267043,MN,0,1999, ,27,111,1
467,-69.61650672143372,43.919183190557526,5119,23041601,041601,0,NORTH OF RIVER ROAD,3, ,-69.616507,43.919183,ME,0,1999, ,23,15,1
468,-73.4898647250411,41.068625187902846,5120,09009030,009030,1,1.25 MILES NORTH OF DARIEN TOWN LINE,2,Uncertain which side of Town Line Station is Located,-73.489864,41.068625,CT,142460,1999,11,9,1,1
469,-74.47029172595411,40.6507101875136,5121,34004119,004119,1,AT VALLEY VIEW MAJORS RD OVERPASS,3, ,-74.470292,40.65071,NJ,50392,2000,11,34,35,1
470,-72.05589572370559,44.08090219070829,5122,5000N203,00N203,0,NEWBURY 0050-0907-0140,3,Uncertain about Segment Numbers in Description,-72.055895,44.080902,VT,0,2001, ,50,17,1
471,-103.64076575312129,48.16245619450938,5123,38000604,000604,7,US2 IN WILLISTON,2,Poor Location Description,-103.640766,48.162456,ND,0,1999, ,38,105,1
472,-72.4137697240389,44.89662819146792,5124,5000P004,00P004,0,WESTFIELD 0.6 MI.S.OF JCT.VT.101,3, ,-72.41377,44.896628,VT,2329,2001,6,50,19,1
473,-70.85713872258918,42.96187318966611,5125,33197101,197101,1,HAMPTON-I95 SB AT HAMPTON TOLL,3, ,-70.857138,42.961874,NH,23442,1999,1,33,15,1
474,-69.60987072142751,43.91584719055435,5126,23041603,041603,0,RIVER ROAD EAST OF STATE ROUTE 27,3,Not on NHPN,-69.609871,43.915847,ME,0,1999, ,23,0,1
475,-73.06116072464192,41.23700018805954,5127,09009031,009031,1,0.5 MILES NORTH OF EXIT 38,3, ,-73.061161,41.237,CT,0,1999, ,9,9,1
476,-74.67275772614265,40.3029041871897,5128,34005102,005102,7,"BRUNSWICK PIKE,BET QUAKER BRIDGE RD & MEADOW RD",3, ,-74.672758,40.302905,NJ,0,2000, ,34,21,1
477,-96.63184874659368,47.70275719408113,5129,27000053,000053,0,"CSAH-14, 1 MI. N OF CSAH-45    POLK CO.",3,Not on NHPN,-96.631849,47.702757,MN,0,1999, ,27,0,1
478,-87.90708373846815,45.78726219229724,5130,26001510,001510,7,0.1 MILES EAST OF NORWAY ROAD,3, ,-87.907084,45.787262,MI,0,1999, ,26,43,1
479,-100.87259175054322,46.82893919326738,5131,38000605,000605,7,EAST MAIN AVENUE IN MANDAN,2,Poor Location Description,-100.872592,46.82894,ND,20568,1999,14,38,59,1
480,-69.47430972130132,44.08260619070983,5132,23049400,049400,7,5.2 MILES SOUTH OF STATE ROUTE 32,3, ,-69.474309,44.082607,ME,0,1999, ,23,15,1
481,-72.79931172439791,41.2930521881118,5133,09009032,009032,1,0.8 MILES SOUTH OF EXIT 55,3, ,-72.799312,41.293052,CT,84073,1999,11,9,9,1
482,-74.86266172631963,40.47301418734815,5134,34005105,005105,3,"BET KUHL RD & S MAIN ST,CO611",3, ,-74.862662,40.473014,NJ,0,2000, ,34,19,1
483,-70.52714372228183,41.75840018854523,5135,25000015,000015,7,104      AT THE SANDWICH T.L.,2,Uncertain which side of T.L./C.L. Station is Located,-70.527144,41.758401,MA,0,1999, ,25,1,1
484,-72.50116272412036,44.93011219149911,5136,5000P052,00P052,0,JAY ENTRANCE TO JAY PEAK SKI AREA OFF VT.242,2,Not on NHPN,-72.501163,44.930112,VT,700,2001,9,50,0,1
485,-71.96046272361667,43.10013818979467,5137,33217001,217001,7,HILLSBOROUGH-NH9 W OF NH31,3, ,-71.960462,43.100138,NH,5700,1999,2,33,11,1
486,-75.60875072701447,38.74320318573712,5138,10008071,008071,7,DE 404 WEST OF BRIDGEVILL,3, ,-75.608751,38.743204,DE,0,1999, ,10,5,1
487,-87.90713573846817,45.787261192297365,5139,26001520,001520,7,0.1 MILES EAST OF NORWAY ROAD,3, ,-87.907136,45.787261,MI,0,1999, ,26,43,1
488,-100.8726297505434,46.82893419326752,5140,38000606,000606,7,EAST MAIN AVENUE IN MANDAN,2,Poor Location Description,-100.872629,46.828934,ND,0,1999, ,38,59,1
489,-94.19882874432776,46.736660193181535,5141,27000055,000055,0,"CSAH-1, W OF CR-134    CROW WING CO.",3,Not on NHPN,-94.198828,46.73666,MN,0,1999, ,27,0,1
490,-71.02712972274747,41.932671188707445,5142,25000016,000016,7,104      2 MILES NORTH OF RTE. 44,3, ,-71.027129,41.932671,MA,0,1999, ,25,5,1
491,-68.71629772059526,44.56449519115864,5143,23050004,050004,7,SOUTH EAST OF STATE ROUTE 46,3, ,-68.716298,44.564495,ME,0,1999, ,23,9,1
492,-74.52590372600594,40.7537601876096,5144,34001121,001121,1,"AT GLEN ALPIN RD, CO646,OVERPASS",3, ,-74.525904,40.75376,NJ,97244,2000,11,34,27,1
493,-72.2301587238678,41.343813188159,5145,09009033,009033,1,0.1 MILES SOUTH OF EXIT 73,3, ,-72.230159,41.343813,CT,75173,1999,11,9,11,1
494,-72.12877072377341,44.97306519153904,5146,5000P082,00P082,1,DERBY 3.0 MI.S.OF EXIT 29,3, ,-72.128771,44.973065,VT,0,2001, ,50,19,1
495,-71.4633907231539,42.987100189689606,5147,33225001,225001,0,HOOKSETT-US3&NH28 N OF GRANITE ST,3, ,-71.46339,42.9871,NH,0,1999, ,33,11,1
496,-75.64068572704417,39.68894618661795,5148,10008003,008003,1,I-95 NORTH OF DE RT 7,3, ,-75.640686,39.688946,DE,0,1999, ,10,3,1
497,-71.99368772364772,41.37160318818496,5149,09009044,009044,1,0.6 MILES SOUTH OF EXIT 89,3, ,-71.993688,41.371603,CT,54810,1999,11,9,11,1
498,-73.28460172485,43.59553519025626,5150,5000R001,00R001,7,"FAIR_HAVEN AT WEST STREET OVERPASS, AT MM 0090",3, ,-73.284602,43.595535,VT,0,2001, ,50,21,1
499,-71.4739027231634,43.08432318978004,5151,33225100,225100,1,HOOKSETT-I93/FEET NB AT HOOKSETT TOLL,2,Uncertain of Exact Location of Toll Booth,-71.473903,43.084323,NH,28862,1999,1,33,13,1
500,-68.63746772052184,44.7287401913116,5152,23050006,050006,0,SOUTH WEST OF US ROUTE 1A,3,Not on NHPN,-68.637467,44.72874,ME,0,1999, ,23,0,1
501,-74.9316917263838,40.887616187734345,5153,34001123,001123,0,"HOPE RD, BET MT LAKE & SHADES OF DEATH RDS",2,Not on NHPN,-74.931692,40.887617,NJ,2932,2000,7,34,0,1
502,-72.11021172375625,42.05982418882593,5154,25000017,000017,1,104      2.5 MILES NORTH OF THE CONNECTICUT S.L,3, ,-72.110212,42.059825,MA,0,1999, ,25,27,1
503,-102.7876707523269,46.88859119332301,5155,38000607,000607,0,9TH ST E. BET 2ND AND 3RD AVE E IN DICKINSON,3,Not on NHPN,-102.787671,46.888592,ND,3168,1999,16,38,0,1
504,-93.00729174321803,47.58219719396903,5156,27000057,000057,0,S OF CR468 NW OF CHISHOLM,3,Not on NHPN,-93.007291,47.582197,MN,0,1999, ,27,0,1
505,-87.90375873846499,45.78715419229735,5157,26001529,001529,7,"US-2 NORWAY, WEST BOUND",3, ,-87.903759,45.787154,MI,0,1999, ,26,43,1
506,-68.15983472007719,46.11073519259878,5158,23050301,050301,1,I-95 (NB) S/O SMYRNA ROAD,3, ,-68.159834,46.110735,ME,0,1999, ,23,3,1
507,-75.54883772695872,39.816841186736944,5159,10008011,008011,7,WIDENER COLLEGE ROCKY RUN PKWY,3, ,-75.548838,39.816842,DE,0,1999, ,10,3,1
508,-74.5985377260735,41.28113618810072,5160,34001124,001124,0,"UNIONVILLE RD, BET CLOVE RD & HARDEN RD",2,Not on NHPN,-74.598538,41.281136,NJ,966,2000,8,34,0,1
509,-72.90039972449222,41.55622718835684,5161,09009045,009045,1,0.5 MILES WEST OF EXIT 3,3, ,-72.900399,41.556227,CT,0,1999, ,9,9,1
510,-72.80935872440726,43.666947190322674,5162,5000R005,00R005,7,KILLINGTON 0.2 MI.W.OF JCT.VT.100 N.,3, ,-72.809358,43.666947,VT,9396,2001,2,50,21,1
511,-71.47390972316362,43.084381189780046,5163,33225101,225101,1,HOOKSETT-I93/FEET SB AT HOOKSETT TOLL,3,Uncertain of exact Location of Toll Booth,-71.47391,43.084381,NH,29749,1999,1,33,13,1
512,-70.9617387226865,42.71594618943687,5164,25000018,000018,1,104      0.5 MILES NORTH OF RTE. 133,3, ,-70.961739,42.715946,MA,0,1999, ,25,9,1
513,-101.32044975096028,48.25282919459351,5165,38000609,000609,0,16 th street in Minot,1,Poor Location Description,-101.32045,48.252829,ND,2404,1999,17,38,0,1
514,-92.12629474239765,46.76076119320408,5166,27000100,000100,1,N OF 27TH AVE W,3, ,-92.126295,46.760761,MN,0,1999, ,27,137,1
515,-68.16001972007729,46.110664192598605,5167,23050305,050305,1,I-95 (SB) S/O SMYRNA ROAD,3, ,-68.16002,46.110665,ME,0,1999, ,23,3,1
516,-87.91916673847936,46.49586319295735,5168,26001189,001189,7,"M-95 CHAMPION, N. BD., S. OF JCT. US-41,M-28",3, ,-87.919167,46.495864,MI,0,1999, ,26,103,1
517,-73.23742872480595,43.40289819007671,5169,5000R011,00R011,0,PAWLET AT NY BORDER,3, ,-73.237429,43.402898,VT,0,2001, ,50,21,1
518,-71.6188417232986,43.17637318986578,5170,33227002,227002,1,HOPKINTON-I89 NB N OF CONCORD TL,3, ,-71.618842,43.176373,NH,17971,1999,1,33,13,1
519,-75.02385572646973,40.933805187777175,5171,34001125,001125,1,BET CO685 & UNION BRICK RD,2,Unable to Locate CO 685,-75.023856,40.933805,NJ,51572,2000,1,34,41,1
520,-72.7194517243235,41.74932618853677,5172,09009049,009049,1,0.1 MILES WEST OF EXIT 44,3, ,-72.719452,41.749326,CT,77977,1999,11,9,3,1
521,-75.53958472695011,39.782905186705534,5173,10008012,008012,0,FOULK & SIMON RDS,3,Not on NHPN,-75.539584,39.782905,DE,0,1999, ,10,0,1
522,-68.28830772019683,46.01644819251072,5174,23050501,050501,1,I-95 (NB) @ CRYSTAL ROAD,3, ,-68.288308,46.016448,ME,0,1999, ,23,3,1
523,-72.75112572435307,43.43718819010866,5175,5000R017,00R017,7,MT_HOLLY 2.6 MI.W.OF JCT.VT.100 N.,3, ,-72.751126,43.437188,VT,5202,2001,2,50,21,1
524,-71.6189867232988,43.17640518986577,5176,33227003,227003,1,HOPKINTON-I89 SB N OF CONCORD TL,3, ,-71.618987,43.176405,NH,18274,1999,1,33,13,1
525,-72.37348972400144,41.58318118838201,5177,09009050,009050,7,1.3 MILES EAST OF EXIT 16,3, ,-72.37349,41.583181,CT,0,1999, ,9,11,1
526,-74.61574372608963,41.010821187848975,5178,34001126,001126,7,"SOUTH OF BLUE HERON RD, SHRP SITE",3, ,-74.615744,41.010821,NJ,30421,2000,16,34,37,1
527,-101.29735875093888,48.24618619458744,5179,38000611,000611,0,University Ave in Minot,2,Not on NHPN,-101.297359,48.246186,ND,2541,1999,16,38,0,1
528,-92.11355674238564,46.76002719320344,5180,27000101,000101,1,N OF GARFIELD AVE,3, ,-92.113557,46.760027,MN,0,1999, ,27,137,1
529,-89.17603873964998,46.26262019274021,5181,26001190,001190,7,0.1 MILES EAST OF US-45,3, ,-89.176039,46.26262,MI,0,1999, ,26,53,1
530,-71.32509572302496,42.60464818933343,5182,25000019,000019,7,104      0.2 MILES SOUTH OF RTE. I-495,3, ,-71.325095,42.604648,MA,0,1999, ,25,17,1
531,-75.58889472699593,38.796475185786726,5183,10008072,008072,3,US 13 SOUTH OF DE 16,3, ,-75.588894,38.796476,DE,0,1999, ,10,5,1
532,-68.28830072019667,46.01641619251075,5184,23050505,050505,1,I-95 (SB) @ CRYSTAL ROAD,3, ,-68.288301,46.016417,ME,0,1999, ,23,3,1
533,-72.96863272455555,43.58483219024611,5185,5000R022,00R022,7,RUTLAND 0.2 MI.N.OF JCT.US 4 W.,3, ,-72.968633,43.584832,VT,0,2001, ,50,21,1
534,-71.39425872308948,42.777755189494535,5186,33229001,229001,0,HUDSON-NH111 E OF CLEMENT RD,3, ,-71.394259,42.777756,NH,0,1999, ,33,11,1
535,-72.64437772425362,41.55854018835919,5187,09009051,009051,7,1.3 MILES SOUTH OF MIDDLETOWN TOWN LINE,3, ,-72.644378,41.55854,CT,0,1999, ,9,7,1
536,-75.02385572646973,40.933805187777175,5188,34001127,001127,1,"ONE MILE EAST OF REST AREA, WIM SITE",3, ,-75.023856,40.933805,NJ,0,2000, ,34,41,1
537,-96.81940174676832,46.84750219328486,5189,38100217,100217,0,BET.I-29 AND US81 INTERCHANGE,2,Poor Location Description,-96.819402,46.847502,ND,0,1999, ,38,17,1
538,-92.11612074238808,46.77125419321379,5190,27000102,000102,1,N OF GARFIELD AVE,3, ,-92.116121,46.771254,MN,0,1999, ,27,137,1
539,-70.55382272230662,41.81235418859551,5191,25000020,000020,7,104      0.8 MILES NORTH OF THE BOURNE T.L.,3, ,-70.553823,41.812354,MA,0,1999, ,25,23,1
540,-89.17603873964998,46.26262019274021,5192,26001200,001200,7,0.1 MILES EAST OF US-45,3, ,-89.176039,46.26262,MI,0,1999, ,26,53,1
541,-68.5318367204236,45.60113419212405,5193,23050700,050700,0,AT INTERSTATE 95,3,Not on NHPN,-68.531837,45.601134,ME,0,1999, ,23,0,1
542,-71.4383507231305,42.72443218944476,5194,33229022,229022,7,HUDSON-CIRCUMFERENCE RD NASHUA TL,2,Not Exact Spelling of Road nor not the same type of road,-71.43835,42.724432,NH,40709,1999,14,33,11,1
543,-72.80036572439894,43.66381719031967,5195,5000R054,00R054,0,KILLINGTON 0.3 MI.S.OF JCT.US.4,1,Not on NHPN; Unable to Locate TH2,-72.800365,43.663817,VT,0,2001, ,50,0,1
544,-72.91832372450881,41.322256188138965,5196,09009052,009052,0,WHITNEY AVENUE - TOWN OF NEW HAVEN,2,Poor Location Description,-72.918324,41.322256,CT,11181,1999,14,9,9,1
545,-74.52564772600562,40.91106618775597,5197,34001129,001129,1,"EAST OF MT HOPE RD OVERPASS, WIM SITE",3, ,-74.525648,40.911066,NJ,0,2000, ,34,27,1
546,-75.4273607268455,38.697870185694896,5198,10008073,008073,7,WEST OF GEORGETOWN,3, ,-75.427361,38.69787,DE,0,1999, ,10,5,1
547,-68.53104972042297,45.60077519212364,5199,23050701,050701,1,AT STATE ROUTE 116,3, ,-68.53105,45.600775,ME,0,1999, ,23,19,1
548,-71.18951572289872,44.12809619075221,5200,33231001,231001,7,JACKSON-NH16 S OF ELLIS BK,3,Placed Name Ellis River Rd,-71.189516,44.128097,NH,3590,1999,2,33,3,1
549,-72.61411372422542,41.919579188695295,5201,09009053,009053,1,0.5 MILES NORTH OF EAST WINDSOR TOWN LINE,2,Uncertain which side of Town Line Station is Located,-72.614114,41.91958,CT,97480,1999,11,9,3,1
550,-74.86202472631908,40.579875187447726,5202,34001130,001130,7,BET WOODSCHURCH RD & REST AREA,3, ,-74.862024,40.579875,NJ,20470,2000,2,34,19,1
551,-71.40113672309565,42.661678189386336,5203,25000021,000021,0,104      1.5 MILES WEST OF THE LOWELL C.L.,3,Not on NHPN,-71.401136,42.661678,MA,0,1999, ,25,0,1
552,-101.4341207510663,46.86130519329754,5204,38800224,800224,1,0.8 MILES WEST OF ND31 INTERCHANGE,3, ,-101.434121,46.861305,ND,0,1999, ,38,59,1
553,-92.1624377424314,46.737151193182,5205,27000103,000103,1,E OF CENTRAL AVE,3, ,-92.162437,46.737151,MN,0,1999, ,27,137,1
554,-73.04801272462963,43.5893751902504,5206,5000R084,00R084,7,WEST_RUTLAND 0.3 MI.W.OF EXIT 6,3, ,-73.048013,43.589376,VT,0,2001, ,50,21,1
555,-89.17603873964998,46.26262019274021,5207,26001209,001209,7,0.1 MILES EAST OF US-45,3, ,-89.176039,46.26262,MI,0,1999, ,26,53,1
556,-68.5310457204227,45.60077819212376,5208,23050705,050705,1,AT STATE ROUTE 116,3, ,-68.531046,45.600778,ME,0,1999, ,23,19,1
557,-75.38645372680746,38.67127918567012,5209,10008074,008074,7,US 113 SOUTH OF GEORGETOW,3,Poor Location Description,-75.386453,38.671279,DE,0,1999, ,10,5,1
558,-71.39510372309019,44.36606119097389,5210,33235001,235001,7,JEFFERSON-US2 E OF NH115,3, ,-71.395104,44.366061,NH,4589,1999,2,33,7,1
559,-73.24290172481113,41.45342818826117,5211,09009054,009054,1,1.2 MILES EAST OF SOUTHBURY TOWN LINE,3, ,-73.242901,41.453428,CT,62234,1999,1,9,9,1
560,-74.5278177260077,40.91102518775597,5212,34001131,001131,1,"UNDER MT HOPE RD,CO666, UNDERPASS",3, ,-74.527818,40.911026,NJ,0,2000, ,34,27,1
561,-72.9747567245613,43.60833419026812,5213,5000R207,00R207,0,RUTLAND 0.1 MI.W.OF JCT US 7,3, ,-72.974757,43.608334,VT,0,1999, ,50,21,1
562,-71.79391572346161,42.26630218901828,5214,25000022,000022,1,104      AT EAST CENTRAL ST.,3, ,-71.793916,42.266302,MA,0,1999, ,25,27,1
563,-98.07635374793898,46.37338619284312,5215,38000227,000227,0,MP33.5 0.5 MILES NORTH OF NORTH JCT.ND13,3, ,-98.076354,46.373387,ND,0,1999, ,38,45,1
564,-68.53180172042346,45.60113419212405,5216,23051000,051000,0,AT INTERSTATE 95,3,Not on NHPN,-68.531801,45.601134,ME,0,1999, ,23,0,1
565,-92.17759174244544,46.73735619318227,5217,27000104,000104,1,"I-35,  63RD AVE W, DULUTH    ST LOUIS CO.",3, ,-92.177591,46.737356,MN,0,1999, ,27,137,1
566,-71.73398072340585,44.283803190897046,5218,33249001,249001,7,LANDAFF-US302&NH10 N OF BROOK RD,2,U302 is Not Cosigned w. NH10 here,-71.733981,44.283804,NH,0,1999, ,33,9,1
567,-89.17848273965228,46.26433419274167,5219,26001230,001230,0,0.1 MILES NORTH OF US-2,3, ,-89.178483,46.264334,MI,0,1999, ,26,53,1
568,-74.5480027260266,40.910740187755664,5220,34001132,001132,1,"UNDER MT HOPE AVE,CO661, UNDERPASS",3, ,-74.548003,40.91074,NJ,67394,2000,11,34,27,1
569,-73.26460272483132,43.57659119023856,5221,5000R261,00R261,0,FAIR HAVEN AT NY BORDER,3, ,-73.264602,43.576592,VT,0,2001, ,50,21,1
570,-72.7738047243742,41.471502188278016,5222,09009055,009055,1,0.7 MILES SOUTH OF EXIT 15,3, ,-72.773804,41.471502,CT,78875,1999,11,9,9,1
571,-75.26692272669595,38.80096418579097,5223,10008075,008075,7,SOUTH OF DEL. 16,3, ,-75.266922,38.800964,DE,0,1999, ,10,5,1
572,-68.70309772058312,44.991820191556606,5224,23051001,051001,1,AT STATE ROUTE 16,3, ,-68.703097,44.99182,ME,0,1999, ,23,19,1
573,-71.8023397234694,42.58338418931345,5225,25000023,000023,7,104      0.3 MILES EAST OF RTE. 32 (MAIN ST.),3, ,-71.802339,42.583384,MA,0,1999, ,25,27,1
574,-72.32527872395633,43.63270419029072,5226,33253001,253001,1,LEBANON-I89 SB AT VT SL,3, ,-72.325279,43.632704,NH,18518,1999,11,33,9,1
575,-74.46939972595328,40.87933218772661,5227,34001133,001133,1,"UNDER FOX HILL ROAD, UNDERPASS",3, ,-74.4694,40.879332,NJ,0,2000, ,34,27,1
576,-72.39890572402497,41.89110218866881,5228,09009016,009016,0,1.4 MILES NORTH OF ROUTE 74,3, ,-72.398906,41.891102,CT,6770,1999,7,9,13,1
577,-72.57635672419043,44.17483819079552,5229,5000W002,00W002,1,BERLIN 0.5 MI.N.OF EXIT 7,3, ,-72.576357,44.174838,VT,24120,2001,1,50,23,1
578,-72.32513172395642,43.63265019029068,5230,33253002,253002,1,LEBANON-I89 NB AT VT SL,3, ,-72.325131,43.632651,NH,19093,1999,11,33,9,1
579,-68.70311472058302,44.99173519155652,5231,23051005,051005,1,AT STATE ROUTE 16,3, ,-68.703115,44.991735,ME,0,1999, ,23,19,1
580,-75.10477572654497,38.71347018570951,5232,10008076,008076,7,NORTH OF REHOBOTH BEACH,2, ,-75.104775,38.71347,DE,0,1999, ,10,5,1
581,-98.07635474793916,46.3733711928433,5233,38000228,000228,0,MP33.5 0.5 MILES NORTH OF NORTH JCT.ND13,3, ,-98.076354,46.373371,ND,0,1999, ,38,45,1
582,-74.69611572616462,40.864892187712925,5234,34001135,001135,7,BET CO612 & CO613,3, ,-74.696116,40.864892,NJ,20884,2000,14,34,27,1
583,-92.1613357424302,46.806951193247016,5235,27000110,000110,7,SE OF CSAH6 (MAPLE GROVE RD),3, ,-92.161336,46.806951,MN,0,1999, ,27,137,1
584,-72.9093137245004,41.37512318818813,5236,09009017,009017,7,0.4 MILES SOUTH OF EXIT 60,3, ,-72.909314,41.375123,CT,0,1999, ,9,9,1
585,-72.51671572413481,44.204618190823446,5237,5000W004,00W004,0,BARRE 0.5 MI.W.OF JCT.US.302,3, ,-72.516716,44.204618,VT,0,2001, ,50,23,1
586,-89.17848273965228,46.26433419274167,5238,26001240,001240,0,0.1 MILES NORTH OF US-2,3, ,-89.178483,46.264334,MI,0,1999, ,26,53,1
587,-98.03947174790478,47.44247919383884,5239,38000229,000229,7,MP345.3 4 MILES EAST OF COOPERSTOWN ND,3, ,-98.039472,47.44248,ND,883,1999,2,38,39,1
588,-71.18839672289778,41.74050918852845,5240,25000024,000024,0,104      1000 FT. WEST OF THE SWANSEA T.L.,3,U6 is Not Labeled On NHPN,-71.188397,41.74051,MA,0,1999, ,25,5,1
589,-92.51589374276038,47.3796071937802,5241,27000164,000164,7,1.3 MI S OF S JCT TH37 S OF VIRGINIA,3, ,-92.515893,47.379607,MN,9121,1999,2,27,137,1
590,-89.17848273965228,46.26433419274167,5242,26001249,001249,0,0.1 MILES NORTH OF US-2,3, ,-89.178483,46.264334,MI,0,1999, ,26,53,1
591,-72.2590557238948,43.67225419032764,5243,33253025,253025,0,LEBANON-NH120 1MI S OF HANOVER TL,3, ,-72.259056,43.672254,NH,19510,1999,16,33,9,1
592,-69.41206072124328,44.767035191347176,5244,23052501,052501,1,I-95 (NB) @ WEBB ROAD,3, ,-69.412061,44.767035,ME,0,1999, ,23,25,1
593,-74.48684772596965,40.89489418774093,5245,34001136,001136,1,JUST EAST OF FRANKLIN RD OVERPASS,3, ,-74.486848,40.894894,NJ,71167,2000,11,34,27,1
594,-73.06368572464419,41.90635318868299,5246,09009018,009018,7,1.6 MILES NORTH OF WINCHESTER TOWN LINE,3, ,-73.063686,41.906353,CT,3151,1999,6,9,5,1
595,-72.55412372416959,44.232662190849446,5247,5000W006,00W006,0,BERLIN 1.0 MI.E.OF JCT.US.2,3, ,-72.554123,44.232662,VT,14505,2001,14,50,23,1
596,-98.03945174790464,47.442482193838885,5248,38000230,000230,7,4 MILES EAST OF COOPERSTOWN ND,3, ,-98.039452,47.442482,ND,0,1999, ,38,39,1
597,-93.2441497434388,47.32607119373064,5249,27000166,000166,7,W OF CSAH83 E OF CALUMET,3, ,-93.24415,47.326071,MN,0,1999, ,27,61,1
598,-89.17845273965236,46.26136319273888,5250,26001270,001270,0,0.1 MILES SOUTH OF US-2,3, ,-89.178453,46.261363,MI,0,1999, ,26,53,1
599,-75.05220572649614,38.46603718547895,5251,10008077,008077,0,DE 1 FENWICK,2,There is no Fenwick but there is a Fenwick Island,-75.052206,38.466037,DE,0,1999, ,10,5,1
600,-97.53042074743053,48.4127011947424,5252,38000231,000231,0,MP122.2 5.5 MILES WEST OF GRAFTON ND,3, ,-97.530421,48.412701,ND,2745,1999,6,38,99,1
601,-95.50701474554624,47.52900819391948,5253,27000170,000170,7,W OF CSAH20 W OF BAGLEY,3, ,-95.507015,47.529009,MN,0,1999, ,27,29,1
602,-89.17845273965236,46.26136319273888,5254,26001280,001280,0,0.1 MILES SOUTH OF US-2,3, ,-89.178453,46.261363,MI,0,1999, ,26,53,1
603,-72.30575472393836,43.66256619031868,5255,33253053,253053,0,LEBANON-NH10 S OF LAKE VIEW AT WILDER DAM,3, ,-72.305754,43.662566,NH,0,1999, ,33,9,1
604,-69.41206072124328,44.767035191347176,5256,23052505,052505,1,I-95 (SB) @ WEBB ROAD,3, ,-69.412061,44.767035,ME,0,1999, ,23,25,1
605,-74.75400772621828,40.620158187485046,5257,34001137,001137,0,BET SCHOOLHOUSE RD & MAPLE LANE,3, ,-74.754007,40.620158,NJ,0,2000, ,34,19,1
606,-73.19438472476595,41.18223018800871,5258,09009019,009019,7,0.4 MILES NORTH OF EXIT 2,3, ,-73.194384,41.182231,CT,83614,1999,12,9,1,1
607,-71.13778772285059,41.77276518855854,5259,25000025,000025,0,104      SOUTH OF WHETSTONE HILL RD.,3,Not on NHPN,-71.137788,41.772765,MA,0,1999, ,25,0,1
608,-72.5039897241229,44.19914519081823,5260,5000W014,00W014,0,BARRE_CITY 0.3 MI.E.OF JCT.VT.62,3, ,-72.50399,44.199145,VT,16938,2001,14,50,23,1
609,-75.06532072650833,38.45276318546654,5261,10008078,008078,0,DE 54 WEST OF FENWICK,3,Not on NHPN,-75.065321,38.452763,DE,0,1999, ,10,0,1
610,-71.04252172276182,43.102651189797086,5262,33255001,255001,7,LEE-NH125 N OF LEE TRAFFIC CIRCLE,2,Uncertain of Location of Lee Traffic Circle,-71.042522,43.102652,NH,13056,1999,2,33,17,1
611,-70.94630672267226,44.00178519063462,5263,23052600,052600,0,1 MILE SOUTH OF THE FRYEBURG TOWN LINE,3, ,-70.946307,44.001785,ME,0,1999, ,23,17,1
612,-97.53028874743032,48.4127011947424,5264,38000232,000232,0,MP122.2 5.5 MILES WEST OF GRAFTON ND,3, ,-97.530289,48.412701,ND,0,1999, ,38,99,1
613,-96.61629274657932,46.87698719331234,5265,27000172,000172,7,1.7 MI E OF CSAH11 E OF DILWORTH,3,CSAH11 is also called S336 or S 231 on NHPN,-96.616293,46.876987,MN,0,1999, ,27,27,1
614,-74.58630772606216,40.919035187763605,5266,34001138,001138,7,BET PARKER RD & PHILLIPS RD,3, ,-74.586308,40.919035,NJ,57409,2000,14,34,27,1
615,-72.38887072401569,41.65232218844631,5267,09009020,009020,7,1.3 MILES WEST OF ROUTE 85,3, ,-72.388871,41.652322,CT,8748,1999,2,9,13,1
616,-72.5895027242027,42.05985918882585,5268,25000026,000026,1,104      0.5 MILES SOUTH OF THE SPRINGFIELD C.L,3, ,-72.589502,42.059859,MA,0,1999, ,25,13,1
617,-84.60680373539459,45.4033771919399,5269,26004150,004150,1,0.1 MILES NORTH OF M-68,3, ,-84.606804,45.403378,MI,0,1999, ,26,31,1
618,-75.59442272700107,38.65113518565146,5270,10008079,008079,3,U.S. RTE. 13 .1 MILES EAST OF SEAFORD,2,U13 runs N-S here,-75.594423,38.651135,DE,0,1999, ,10,5,1
619,-72.58348472419692,44.25949819087448,5271,5000W024,00W024,0,MONTPELIER 0.3 MI.W.OF JCT.VT.12,3, ,-72.583485,44.259498,VT,0,2001, ,50,23,1
620,-101.54881275117296,48.34872219468298,5272,38000233,000233,7,MP78.3 1.5 MILES SOUTH EAST OF FOXHOLM ND,3, ,-101.548813,48.348722,ND,0,1999, ,38,101,1
621,-94.92757774500647,45.712252192227474,5273,27000175,000175,1,SE OF CR186 SE OF SAUK CENTRE,3, ,-94.927578,45.712252,MN,0,1999, ,27,145,1
622,-75.0133117264599,40.83512618768531,5274,34001139,001139,7,BET NJ 31 & RT 519,3, ,-75.013312,40.835126,NJ,10047,2000,14,34,41,1
623,-73.41729172497344,41.77706018856252,5275,09009001,009001,0,0.5 MILES SOUTH OF CORNWALL TOWN LINE,3, ,-73.417291,41.77706,CT,2458,1999,6,9,5,1
624,-72.8957037244877,44.20071619081976,5276,5000W055,00W055,0,FAYSTON 3.5 MI.W.JCT.VT.100,3, ,-72.895704,44.200716,VT,0,2001, ,50,23,1
625,-71.68810972336314,44.07019119069816,5277,33259002,259002,1,LINCOLN-I93-SB BET INT 33&PKY EXIT 1,3, ,-71.68811,44.070191,NH,3763,1999,1,33,9,1
626,-69.71459372152498,44.45752719105894,5278,23053101,053101,1,I-95 NORTH BOUND NORTH OF LYONS ROAD,3, ,-69.714594,44.457527,ME,0,1999, ,23,11,1
627,-84.60680373539459,45.4033771919399,5279,26004160,004160,1,0.1 MILES NORTH OF M-68,3, ,-84.606804,45.403378,MI,0,1999, ,26,31,1
628,-70.92147272264901,42.19386618895082,5280,25000028,000028,0,104      EAST OF THE WEYMOUTH T.L.,2,Poor Location Description,-70.921472,42.193866,MA,0,1999, ,25,0,1
629,-101.54892275117322,48.34880019468305,5281,38000234,000234,7,MP78.3 1.5 MILES SOUTH EAST OF FOXHOLM ND,3, ,-101.548922,48.348801,ND,0,1999, ,38,101,1
630,-75.60789272701363,38.80662718579612,5282,10008080,008080,0,DE 16 WEST OF GREENWOOD,3, ,-75.607893,38.806627,DE,0,1999, ,10,5,1
631,-94.22731074435428,45.76237419227424,5283,27000187,000187,4,.8 MI NW OF NCL RICE,3, ,-94.227311,45.762374,MN,0,1999, ,27,9,1
632,-74.43335372591987,40.79255918764568,5284,34001140,001140,0,BET EAST OF PARK AVE,3, ,-74.433354,40.792559,NJ,25069,2000,14,34,27,1
633,-72.9068497244982,44.09205519071856,5285,5000W062,00W062,0,WARREN 2.4 MI.W.OF JCT.VT.100,2,Not on NHPN; Could Not Locate TH 5; Placed on Lincoln Gap Rd,-72.90685,44.092056,VT,0,2001, ,50,0,1
634,-71.83408272349897,41.37723518819019,5286,09009002,009002,0,0.5 MILES EAST OF S.R. 432,1,Unable to Find S432 in State; Possibly Should be S234,-71.834083,41.377235,CT,3797,1999,16,9,11,1
635,-69.71455772152513,44.45760419105908,5287,23053105,053105,1,I-95 SOUTH BOUND NORTH OF LYONS ROAD,3, ,-69.714558,44.457604,ME,0,1999, ,23,11,1
636,-84.60680373539459,45.4033771919399,5288,26004169,004169,1,"I-75 INDIAN RIVER, NORTH BD VOLUME NORTH OF M-68",3, ,-84.606804,45.403378,MI,0,1999, ,26,31,1
637,-71.68810972336314,44.07019219069821,5289,33259003,259003,1,LINCOLN-I93-NB BET INT 33&PKY EXIT 1,3, ,-71.688109,44.070192,NH,3647,1999,1,33,9,1
638,-92.9979307432094,45.35591519189545,5290,27000191,000191,1,1.4 MI N OF CSAH22 (E VIKING BLVD) N OF WYOMING,3, ,-92.997931,45.355915,MN,0,1999, ,27,25,1
639,-72.70227472430764,41.577879188376926,5291,09009022,009022,0,1.7 MILES SOUTH OF ROUTE 372,3,Not on NHPN,-72.702275,41.577879,CT,7512,1999,16,9,0,1
640,-96.8389137467866,46.89849019333222,5292,38000235,000235,1,MP66.8 N. OF 12TH AVE.  N. FARGO,3,In CountyFips 17,-96.838913,46.89849,ND,27168,1999,11,38,17,1
641,-71.31630672301685,41.79538918857951,5293,25000060,000060,0, BTWN. RTES. 114 & 136 AT ANTHONY ST.,2, ,-71.316307,41.795389,MA,0,2005, ,25,5,1
642,-75.61381672701918,38.80251918579228,5294,10008081,008081,0,SUSSEX 32 WEST OF GREENWOOD,3,Not on NHPN,-75.613817,38.802519,DE,0,1999, ,10,0,1
643,-74.60128572607617,41.14020518796946,5295,34001141,001141,0,BET CO661 & WHEATSWORTH RD,3, ,-74.601286,41.140205,NJ,0,2000, ,34,37,1
644,-72.72498972432868,44.3772841909843,5296,5000W081,00W081,0,WATERBURY AT MM 1000-1218-0478,3,Poor Location Description,-72.72499,44.377285,VT,0,2001, ,50,23,1
645,-71.89195872355288,44.34040919095003,5297,33265090,265090,1,LITTLETON-I93 SB @ VT SL (VT# C21),3, ,-71.891959,44.340409,NH,2570,1999,1,33,9,1
646,-70.19569172197316,44.61224919120309,5298,23053200,053200,7,2 MILES NORTH OF INTERSECTION STATE ROUTE 156,3, ,-70.195691,44.612249,ME,0,1999, ,23,7,1
647,-93.99317974413628,45.374644191913205,5299,27000200,000200,1,1.1 MI NW OF CSAH8 NW OF HASTY,3, ,-93.99318,45.374644,MN,43706,1999,1,27,171,1
648,-98.36140774820456,48.639725194953925,5300,38000237,000237,0,MP205.2 8.5 MILES SOUTH OF LANGDON ND,3, ,-98.361407,48.639725,ND,739,1999,2,38,19,1
649,-88.4309217389561,46.09432519258324,5301,26001030,001030,7,0.3 MILES EAST OF LAKE FIVE RD.,1,Couldn't find Lake Five Rd.,-88.430922,46.094325,MI,0,1999, ,26,71,1
650,-74.87938272633517,40.6138281874791,5302,34001142,001142,7,BET ALLERTON RD & REGIONAL RD,3, ,-74.879382,40.613828,NJ,0,2000, ,34,19,1
651,-73.06231372464293,41.61694318841348,5303,09009023,009023,7,0.2 MILES NORTH OF EXIT 37,3, ,-73.062314,41.616944,CT,15288,1999,12,9,5,1
652,-72.65343972426204,44.277325190891126,5304,5000W088,00W088,1,MIDDLESEX 3.5 MI NO OF EXIT 8 AT MM 56.4,3, ,-72.65344,44.277326,VT,0,2001, ,50,23,1
653,-71.89194872355301,44.34039819094984,5305,33265091,265091,1,LITTLETON-I93 NB @ VT SL (VT# C21),3, ,-71.891949,44.340399,NH,2625,1999,1,33,9,1
654,-71.51656572320326,41.97169618874391,5306,44000001,000001,7,25  STHW 146 - 3696 FT N OF STHW 104,3, ,-71.516566,41.971697,RI,0,1999, ,44,7,1
655,-75.39867072681886,38.68934518568676,5307,10008082,008082,7,US 113 GEORGETOWN,3,Poor Location Description,-75.398671,38.689345,DE,0,1999, ,10,5,1
656,-93.66226674382816,46.03007719252354,5308,27000204,000204,7,"TH-169,  3 MI. S OF ONAMIA  MILLE LACS CO.",3, ,-93.662267,46.030077,MN,0,1999, ,27,95,1
657,-98.36140674820444,48.63976519495406,5309,38000238,000238,0,MP205.2 8.5 MILES SOUTH OF LANGDON ND,3, ,-98.361407,48.639765,ND,0,1999, ,38,19,1
658,-70.12435472190668,43.83946619048345,5310,23054501,054501,1,SOUTH OF DESERT ROAD,3, ,-70.124354,43.839466,ME,0,1999, ,23,5,1
